{
    "66": {
        "@class": "com.eptisa.dto.SimpleLayerStationGeoDto",
        "stationCode": "66",
        "lat": 21.82472222222222,
        "lon": 73.74166666666667,
        "savedAt": "2020-10-09",
        "name": "Sardar Sarovar Project_Gujarat Reservoir",
        "type": "Inflow",
        "layerStationStationCode": "66"
    },
    "73988598": {
        "@class": "com.eptisa.dto.SimpleLayerStationGeoDto",
        "stationCode": "73988598",
        "lat": 10.498055555555554,
        "lon": 77.94583333333334,
        "savedAt": "2020-10-09",
        "name": "Lakshmanpatti",
        "type": "Base",
        "layerStationStationCode": "73988598"
    },
    "038-CDJAPR": {
        "@class": "com.eptisa.dto.SimpleLayerStationGeoDto",
        "stationCode": "038-CDJAPR",
        "lat": 24.482705555555555,
        "lon": 76.22300555555556,
        "savedAt": "2020-10-09",
        "name": "Kalisindh Dam",
        "type": "Inflow",
        "layerStationStationCode": "038-CDJAPR"
    },
    "ABC-AUDIT-Test": {
        "@class": "com.eptisa.dto.SimpleLayerStationGeoDto",
        "stationCode": "ABC-AUDIT-Test",
        "lat": 23.389722222222222,
        "lon": 77.42611111111111,
        "savedAt": "2023-08-17",
        "name": "ABC-AUDIT-<u>Test</u>",
        "type": "Level",
        "layerStationStationCode": "ABC-AUDIT-Test"
    },
    "046-CDJAPR": {
        "@class": "com.eptisa.dto.SimpleLayerStationGeoDto",
        "stationCode": "046-CDJAPR",
        "lat": 25.03666666666667,
        "lon": 75.67833333333334,
        "savedAt": "2020-10-09",
        "name": "Jawahar Sagar  DAM",
        "type": "Inflow",
        "layerStationStationCode": "046-CDJAPR"
    },
    "018-UGDHYD": {
        "@class": "com.eptisa.dto.SimpleLayerStationGeoDto",
        "stationCode": "018-UGDHYD",
        "lat": 17.75,
        "lon": 77.93,
        "savedAt": "2020-10-09",
        "name": "Singur Reservoir",
        "type": "Inflow",
        "layerStationStationCode": "018-UGDHYD"
    },
    "041-CDJAPR": {
        "@class": "com.eptisa.dto.SimpleLayerStationGeoDto",
        "stationCode": "041-CDJAPR",
        "lat": 26.554166666666667,
        "lon": 77.005,
        "savedAt": "2020-10-09",
        "name": "Panchana Dam",
        "type": "Inflow",
        "layerStationStationCode": "041-CDJAPR"
    },
    "018MAHGAND": {
        "@class": "com.eptisa.dto.SimpleLayerStationGeoDto",
        "stationCode": "018MAHGAND",
        "lat": 24.004722222222224,
        "lon": 72.85416666666666,
        "savedAt": "2020-10-09",
        "name": "Dharoi Dam",
        "type": "Inflow",
        "layerStationStationCode": "018MAHGAND"
    },
    "017-WGDNGP": {
        "@class": "com.eptisa.dto.SimpleLayerStationGeoDto",
        "stationCode": "017-WGDNGP",
        "lat": 19.814444444444444,
        "lon": 79.37916666666666,
        "savedAt": "2020-10-09",
        "name": "Bamni (Ballarsha)",
        "type": "Level",
        "layerStationStationCode": "017-WGDNGP"
    },
    "049-ugdhyd": {
        "@class": "com.eptisa.dto.SimpleLayerStationGeoDto",
        "stationCode": "049-ugdhyd",
        "lat": 18.703888888888887,
        "lon": 80.08916666666666,
        "savedAt": "2020-10-09",
        "name": "LAXMI BARRAGE",
        "type": "Inflow",
        "layerStationStationCode": "049-ugdhyd"
    },
    "009NEID3": {
        "@class": "com.eptisa.dto.SimpleLayerStationGeoDto",
        "stationCode": "009NEID3",
        "lat": 28.66178888888889,
        "lon": 95.01284166666667,
        "savedAt": "2020-10-09",
        "name": "Yingkiong ",
        "type": "Level",
        "layerStationStationCode": "009NEID3"
    },
    "003-LYDAGRa": {
        "@class": "com.eptisa.dto.SimpleLayerStationGeoDto",
        "stationCode": "003-LYDAGRa",
        "lat": 26.65861111111111,
        "lon": 77.90361111111112,
        "savedAt": "2020-10-09",
        "name": "DHOLPUR",
        "type": "Level",
        "layerStationStationCode": "003-LYDAGRa"
    },
    "044-CDJAPR": {
        "@class": "com.eptisa.dto.SimpleLayerStationGeoDto",
        "stationCode": "044-CDJAPR",
        "lat": 25.19611111111111,
        "lon": 75.84444444444443,
        "savedAt": "2020-10-09",
        "name": "Kota City",
        "type": "Level",
        "layerStationStationCode": "044-CDJAPR"
    },
    "055-UYDDEL": {
        "@class": "com.eptisa.dto.SimpleLayerStationGeoDto",
        "stationCode": "055-UYDDEL",
        "lat": 30.613611111111112,
        "lon": 77.7911111111111,
        "savedAt": "2023-07-03",
        "name": "Ichari Dam",
        "type": "Inflow",
        "layerStationStationCode": "055-UYDDEL"
    },
    "006-WGDNGP": {
        "@class": "com.eptisa.dto.SimpleLayerStationGeoDto",
        "stationCode": "006-WGDNGP",
        "lat": 21.149166666666666,
        "lon": 79.66861111111112,
        "savedAt": "2020-10-09",
        "name": "Bhandara",
        "type": "Level",
        "layerStationStationCode": "006-WGDNGP"
    },
    "01-11-01-002": {
        "@class": "com.eptisa.dto.SimpleLayerStationGeoDto",
        "stationCode": "01-11-01-002",
        "lat": 24.649444444444445,
        "lon": 92.60888888888888,
        "savedAt": "2020-10-09",
        "name": "Matijuri",
        "type": "Level",
        "layerStationStationCode": "01-11-01-002"
    },
    "062-HGDDDN": {
        "@class": "com.eptisa.dto.SimpleLayerStationGeoDto",
        "stationCode": "062-HGDDDN",
        "lat": 30.37777777777778,
        "lon": 78.47777777777777,
        "savedAt": "2023-06-27",
        "name": "Tehri Dam",
        "type": "Inflow",
        "layerStationStationCode": "062-HGDDDN"
    },
    "039-CDJAPR": {
        "@class": "com.eptisa.dto.SimpleLayerStationGeoDto",
        "stationCode": "039-CDJAPR",
        "lat": 25.489444444444445,
        "lon": 75.46722222222222,
        "savedAt": "2020-10-09",
        "name": "Gudha Dam",
        "type": "Inflow",
        "layerStationStationCode": "039-CDJAPR"
    },
    "028-MAHGAND": {
        "@class": "com.eptisa.dto.SimpleLayerStationGeoDto",
        "stationCode": "028-MAHGAND",
        "lat": 24.49361111111111,
        "lon": 72.79055555555556,
        "savedAt": "2020-10-09",
        "name": "Abu Road",
        "type": "Level",
        "layerStationStationCode": "028-MAHGAND"
    },
    "013-CDJAPR": {
        "@class": "com.eptisa.dto.SimpleLayerStationGeoDto",
        "stationCode": "013-CDJAPR",
        "lat": 26.279999999999998,
        "lon": 77.28166666666667,
        "savedAt": "2020-10-09",
        "name": "Manderial",
        "type": "Level",
        "layerStationStationCode": "013-CDJAPR"
    },
    "021-LBDJPG": {
        "@class": "com.eptisa.dto.SimpleLayerStationGeoDto",
        "stationCode": "021-LBDJPG",
        "lat": 26.72972222222222,
        "lon": 88.58222222222221,
        "savedAt": "2020-10-09",
        "name": "Gazoldoba",
        "type": "Inflow",
        "layerStationStationCode": "021-LBDJPG"
    },
    "012-MDSIL": {
        "@class": "com.eptisa.dto.SimpleLayerStationGeoDto",
        "stationCode": "012-MDSIL",
        "lat": 23.47222222222222,
        "lon": 91.26277777777777,
        "savedAt": "2020-10-09",
        "name": "Sonamura",
        "type": "Level",
        "layerStationStationCode": "012-MDSIL"
    },
    "043-CDJAPR": {
        "@class": "com.eptisa.dto.SimpleLayerStationGeoDto",
        "stationCode": "043-CDJAPR",
        "lat": 25.17638888888889,
        "lon": 75.82583333333334,
        "savedAt": "2020-10-09",
        "name": "Kota Barrage",
        "type": "Inflow",
        "layerStationStationCode": "043-CDJAPR"
    },
    "01 02 14 005": {
        "@class": "com.eptisa.dto.SimpleLayerStationGeoDto",
        "stationCode": "01 02 14 005",
        "lat": 21.474444444444444,
        "lon": 71.88,
        "savedAt": "2023-06-12",
        "name": "Shetrunji dam",
        "type": "Inflow",
        "layerStationStationCode": "01 02 14 005"
    },
    "018-SWRDKOCHI": {
        "@class": "com.eptisa.dto.SimpleLayerStationGeoDto",
        "stationCode": "018-SWRDKOCHI",
        "lat": 9.329166666666666,
        "lon": 76.66388888888889,
        "savedAt": "2020-10-09",
        "name": "MALAKKARA",
        "type": "Level",
        "layerStationStationCode": "018-SWRDKOCHI"
    },
    "43mgd5ptn": {
        "@class": "com.eptisa.dto.SimpleLayerStationGeoDto",
        "stationCode": "43mgd5ptn",
        "lat": 24.01,
        "lon": 84.47,
        "savedAt": "2020-10-09",
        "name": "Amanat Barrage",
        "type": "Inflow",
        "layerStationStationCode": "43mgd5ptn"
    },
    "002-HYDCHENNAI": {
        "@class": "com.eptisa.dto.SimpleLayerStationGeoDto",
        "stationCode": "002-HYDCHENNAI",
        "lat": 14.470277777777778,
        "lon": 79.9888888888889,
        "savedAt": "2020-10-09",
        "name": "Nellore CWC",
        "type": "Level",
        "layerStationStationCode": "002-HYDCHENNAI"
    },
    "015-NDBHP": {
        "@class": "com.eptisa.dto.SimpleLayerStationGeoDto",
        "stationCode": "015-NDBHP",
        "lat": 22.563333333333333,
        "lon": 77.97611111111111,
        "savedAt": "2020-10-09",
        "name": "Tawa Reservoir",
        "type": "Inflow",
        "layerStationStationCode": "015-NDBHP"
    },
    "012-MGD5PTN": {
        "@class": "com.eptisa.dto.SimpleLayerStationGeoDto",
        "stationCode": "012-MGD5PTN",
        "lat": 26.074444444444445,
        "lon": 84.12694444444443,
        "savedAt": "2020-10-09",
        "name": "Darauli",
        "type": "Level",
        "layerStationStationCode": "012-MGD5PTN"
    },
    "01-11-01-007": {
        "@class": "com.eptisa.dto.SimpleLayerStationGeoDto",
        "stationCode": "01-11-01-007",
        "lat": 24.83277777777778,
        "lon": 92.79166666666667,
        "savedAt": "2020-10-09",
        "name": "Annapurna Ghat",
        "type": "Level",
        "layerStationStationCode": "01-11-01-007"
    },
    "008-DDASL\t": {
        "@class": "com.eptisa.dto.SimpleLayerStationGeoDto",
        "stationCode": "008-DDASL\t",
        "lat": 23.72472222222222,
        "lon": 85.83999999999999,
        "savedAt": "2020-10-09",
        "name": "Tenughat Reservoir",
        "type": "Inflow",
        "layerStationStationCode": "008-DDASL\t"
    },
    "025-mgd4ptn": {
        "@class": "com.eptisa.dto.SimpleLayerStationGeoDto",
        "stationCode": "025-mgd4ptn",
        "lat": 25.42388888888889,
        "lon": 87.23416666666667,
        "savedAt": "2020-10-09",
        "name": "Kursela",
        "type": "Level",
        "layerStationStationCode": "025-mgd4ptn"
    },
    "029-mgd4ptn": {
        "@class": "com.eptisa.dto.SimpleLayerStationGeoDto",
        "stationCode": "029-mgd4ptn",
        "lat": 26.124533333333332,
        "lon": 87.49226666666667,
        "savedAt": "2020-10-09",
        "name": "Araria",
        "type": "Level",
        "layerStationStationCode": "029-mgd4ptn"
    },
    "012-SWRDKOCHI": {
        "@class": "com.eptisa.dto.SimpleLayerStationGeoDto",
        "stationCode": "012-SWRDKOCHI",
        "lat": 10.18361111111111,
        "lon": 76.49555555555555,
        "savedAt": "2020-10-09",
        "name": "NEELEESWARAM",
        "type": "Level",
        "layerStationStationCode": "012-SWRDKOCHI"
    },
    "003-mgd2lkn": {
        "@class": "com.eptisa.dto.SimpleLayerStationGeoDto",
        "stationCode": "003-mgd2lkn",
        "lat": 27.40138888888889,
        "lon": 79.62305555555555,
        "savedAt": "2020-10-09",
        "name": "Fatehgarh",
        "type": "Level",
        "layerStationStationCode": "003-mgd2lkn"
    },
    "0052-SRDCBE": {
        "@class": "com.eptisa.dto.SimpleLayerStationGeoDto",
        "stationCode": "0052-SRDCBE",
        "lat": 9.933333333333334,
        "lon": 78.11666666666666,
        "savedAt": "2020-10-09",
        "name": "Madurai",
        "type": "Level",
        "layerStationStationCode": "0052-SRDCBE"
    },
    "020-MAHGAND": {
        "@class": "com.eptisa.dto.SimpleLayerStationGeoDto",
        "stationCode": "020-MAHGAND",
        "lat": 23.06138888888889,
        "lon": 72.58555555555554,
        "savedAt": "2020-10-09",
        "name": "Subhash Bridge",
        "type": "Level",
        "layerStationStationCode": "020-MAHGAND"
    },
    "010-MBDGHY": {
        "@class": "com.eptisa.dto.SimpleLayerStationGeoDto",
        "stationCode": "010-MBDGHY",
        "lat": 24.83277777777778,
        "lon": 92.79166666666667,
        "savedAt": "2020-10-09",
        "name": "Annapurnaghat",
        "type": "Level",
        "layerStationStationCode": "010-MBDGHY"
    },
    "024-UBDDIB": {
        "@class": "com.eptisa.dto.SimpleLayerStationGeoDto",
        "stationCode": "024-UBDDIB",
        "lat": 26.631180555555556,
        "lon": 93.73041944444445,
        "savedAt": "2020-10-09",
        "name": "Numaligarh",
        "type": "Level",
        "layerStationStationCode": "024-UBDDIB"
    },
    "DWRIS-06": {
        "@class": "com.eptisa.dto.SimpleLayerStationGeoDto",
        "stationCode": "DWRIS-06",
        "lat": 27.085277777777776,
        "lon": 88.45166666666667,
        "savedAt": "2020-10-09",
        "name": "Melli",
        "type": "Level",
        "layerStationStationCode": "DWRIS-06"
    },
    "023-MBDGHY": {
        "@class": "com.eptisa.dto.SimpleLayerStationGeoDto",
        "stationCode": "023-MBDGHY",
        "lat": 24.316111111111113,
        "lon": 91.99305555555556,
        "savedAt": "2020-10-09",
        "name": "Kailashahar",
        "type": "Level",
        "layerStationStationCode": "023-MBDGHY"
    },
    "028-mgd4ptn": {
        "@class": "com.eptisa.dto.SimpleLayerStationGeoDto",
        "stationCode": "028-mgd4ptn",
        "lat": 26.3925,
        "lon": 88.1575,
        "savedAt": "2020-10-09",
        "name": "Taibpur",
        "type": "Level",
        "layerStationStationCode": "028-mgd4ptn"
    },
    "012-mgd2lkn": {
        "@class": "com.eptisa.dto.SimpleLayerStationGeoDto",
        "stationCode": "012-mgd2lkn",
        "lat": 26.47222222222222,
        "lon": 80.3786111111111,
        "savedAt": "2020-10-09",
        "name": "Kanpur",
        "type": "Level",
        "layerStationStationCode": "012-mgd2lkn"
    },
    "021-TDSURAT": {
        "@class": "com.eptisa.dto.SimpleLayerStationGeoDto",
        "stationCode": "021-TDSURAT",
        "lat": 21.25,
        "lon": 73.58999999999999,
        "savedAt": "2020-10-09",
        "name": "Ukai Reservoir",
        "type": "Inflow",
        "layerStationStationCode": "021-TDSURAT"
    },
    "016-ERDBWN": {
        "@class": "com.eptisa.dto.SimpleLayerStationGeoDto",
        "stationCode": "016-ERDBWN",
        "lat": 20.916944444444447,
        "lon": 86.27972222222222,
        "savedAt": "2020-10-09",
        "name": "Akhuapada",
        "type": "Level",
        "layerStationStationCode": "016-ERDBWN"
    },
    "020-mgd4ptn": {
        "@class": "com.eptisa.dto.SimpleLayerStationGeoDto",
        "stationCode": "020-mgd4ptn",
        "lat": 26.586666666666666,
        "lon": 86.14555555555556,
        "savedAt": "2020-10-09",
        "name": "Jainagar",
        "type": "Level",
        "layerStationStationCode": "020-mgd4ptn"
    },
    "009-mgd2lkn": {
        "@class": "com.eptisa.dto.SimpleLayerStationGeoDto",
        "stationCode": "009-mgd2lkn",
        "lat": 28.299166666666668,
        "lon": 79.36638888888888,
        "savedAt": "2020-10-09",
        "name": "Bareilly",
        "type": "Level",
        "layerStationStationCode": "009-mgd2lkn"
    },
    "031-TDSURAT": {
        "@class": "com.eptisa.dto.SimpleLayerStationGeoDto",
        "stationCode": "031-TDSURAT",
        "lat": 20.37,
        "lon": 72.88,
        "savedAt": "2020-10-09",
        "name": "VAPI",
        "type": "Level",
        "layerStationStationCode": "031-TDSURAT"
    },
    "030-LGDHYD": {
        "@class": "com.eptisa.dto.SimpleLayerStationGeoDto",
        "stationCode": "030-LGDHYD",
        "lat": 17.74361111111111,
        "lon": 81.38666666666667,
        "savedAt": "2020-10-09",
        "name": "Chinturu (Tallagudem/Kummuru)",
        "type": "Level",
        "layerStationStationCode": "030-LGDHYD"
    },
    "007-MGD5PTN": {
        "@class": "com.eptisa.dto.SimpleLayerStationGeoDto",
        "stationCode": "007-MGD5PTN",
        "lat": 25.25027777777778,
        "lon": 87.22611111111111,
        "savedAt": "2020-10-09",
        "name": "Kahalgaon",
        "type": "Level",
        "layerStationStationCode": "007-MGD5PTN"
    },
    "008-ERDBWN": {
        "@class": "com.eptisa.dto.SimpleLayerStationGeoDto",
        "stationCode": "008-ERDBWN",
        "lat": 22.815555555555555,
        "lon": 86.21611111111112,
        "savedAt": "2020-10-09",
        "name": "Jamshedpur",
        "type": "Level",
        "layerStationStationCode": "008-ERDBWN"
    },
    "031-UBDDIB": {
        "@class": "com.eptisa.dto.SimpleLayerStationGeoDto",
        "stationCode": "031-UBDDIB",
        "lat": 26.615833333333335,
        "lon": 92.79694444444445,
        "savedAt": "2020-10-09",
        "name": "Tezpur",
        "type": "Level",
        "layerStationStationCode": "031-UBDDIB"
    },
    "034-UBDDIB": {
        "@class": "com.eptisa.dto.SimpleLayerStationGeoDto",
        "stationCode": "034-UBDDIB",
        "lat": 26.168333333333333,
        "lon": 92.3586111111111,
        "savedAt": "2020-10-09",
        "name": "Dharamtul",
        "type": "Level",
        "layerStationStationCode": "034-UBDDIB"
    },
    "015-ERDBWN": {
        "@class": "com.eptisa.dto.SimpleLayerStationGeoDto",
        "stationCode": "015-ERDBWN",
        "lat": 21.211111111111112,
        "lon": 86.12055555555555,
        "savedAt": "2020-10-09",
        "name": "Anandpur",
        "type": "Level",
        "layerStationStationCode": "015-ERDBWN"
    },
    "014-mgd4ptn": {
        "@class": "com.eptisa.dto.SimpleLayerStationGeoDto",
        "stationCode": "014-mgd4ptn",
        "lat": 26.119444444444444,
        "lon": 85.87638888888888,
        "savedAt": "2020-10-09",
        "name": "Ekmighat",
        "type": "Level",
        "layerStationStationCode": "014-mgd4ptn"
    },
    "005-MGD5PTN": {
        "@class": "com.eptisa.dto.SimpleLayerStationGeoDto",
        "stationCode": "005-MGD5PTN",
        "lat": 25.37777777777778,
        "lon": 86.46194444444444,
        "savedAt": "2020-10-09",
        "name": "Munger",
        "type": "Level",
        "layerStationStationCode": "005-MGD5PTN"
    },
    "011-MGD1LKN": {
        "@class": "com.eptisa.dto.SimpleLayerStationGeoDto",
        "stationCode": "011-MGD1LKN",
        "lat": 26.811116666666667,
        "lon": 82.20746666666668,
        "savedAt": "2020-10-09",
        "name": "Ayodhya ",
        "type": "Level",
        "layerStationStationCode": "011-MGD1LKN"
    },
    "013-mgd2lkn": {
        "@class": "com.eptisa.dto.SimpleLayerStationGeoDto",
        "stationCode": "013-mgd2lkn",
        "lat": 26.060830555555555,
        "lon": 81.02860833333334,
        "savedAt": "2020-10-09",
        "name": "Dalmau",
        "type": "Level",
        "layerStationStationCode": "013-mgd2lkn"
    },
    "037-MDBURLA": {
        "@class": "com.eptisa.dto.SimpleLayerStationGeoDto",
        "stationCode": "037-MDBURLA",
        "lat": 20.07,
        "lon": 86.17,
        "savedAt": "2020-10-09",
        "name": "Alipingal",
        "type": "Level",
        "layerStationStationCode": "037-MDBURLA"
    },
    "029-ERDBWN": {
        "@class": "com.eptisa.dto.SimpleLayerStationGeoDto",
        "stationCode": "029-ERDBWN",
        "lat": 19.516666666666666,
        "lon": 84.88333333333334,
        "savedAt": "2020-10-09",
        "name": "Purusottampur",
        "type": "Level",
        "layerStationStationCode": "029-ERDBWN"
    },
    "002-MBDGHY": {
        "@class": "com.eptisa.dto.SimpleLayerStationGeoDto",
        "stationCode": "002-MBDGHY",
        "lat": 26.197222222222223,
        "lon": 90.6388888888889,
        "savedAt": "2020-10-09",
        "name": "Goalpara",
        "type": "Level",
        "layerStationStationCode": "002-MBDGHY"
    },
    "023-ERDBWN": {
        "@class": "com.eptisa.dto.SimpleLayerStationGeoDto",
        "stationCode": "023-ERDBWN",
        "lat": 20.878888888888888,
        "lon": 86.01444444444445,
        "savedAt": "2020-10-09",
        "name": "Jenapur",
        "type": "Level",
        "layerStationStationCode": "023-ERDBWN"
    },
    "004-MGD4PTN": {
        "@class": "com.eptisa.dto.SimpleLayerStationGeoDto",
        "stationCode": "004-MGD4PTN",
        "lat": 26.142777777777777,
        "lon": 85.3761111111111,
        "savedAt": "2020-10-09",
        "name": "Sikandarpur (Muzzafarpur)",
        "type": "Level",
        "layerStationStationCode": "004-MGD4PTN"
    },
    "035-ERDBWN": {
        "@class": "com.eptisa.dto.SimpleLayerStationGeoDto",
        "stationCode": "035-ERDBWN",
        "lat": 19.083333333333332,
        "lon": 83.80555555555556,
        "savedAt": "2020-10-09",
        "name": "Gunupur",
        "type": "Level",
        "layerStationStationCode": "035-ERDBWN"
    },
    "028-LBDJPG": {
        "@class": "com.eptisa.dto.SimpleLayerStationGeoDto",
        "stationCode": "028-LBDJPG",
        "lat": 26.325277777777778,
        "lon": 89.23444444444445,
        "savedAt": "2020-10-09",
        "name": "Mathabhanga",
        "type": "Level",
        "layerStationStationCode": "028-LBDJPG"
    },
    "028-LGDHYD": {
        "@class": "com.eptisa.dto.SimpleLayerStationGeoDto",
        "stationCode": "028-LGDHYD",
        "lat": 16.938333333333333,
        "lon": 81.7825,
        "savedAt": "2020-10-09",
        "name": "Dowlaiswaram (State Govt Site)",
        "type": "Level",
        "layerStationStationCode": "028-LGDHYD"
    },
    "009-WGDNGP": {
        "@class": "com.eptisa.dto.SimpleLayerStationGeoDto",
        "stationCode": "009-WGDNGP",
        "lat": 20.795,
        "lon": 79.64944444444446,
        "savedAt": "2020-10-09",
        "name": "Pauni",
        "type": "Level",
        "layerStationStationCode": "009-WGDNGP"
    },
    "039-mdburla": {
        "@class": "com.eptisa.dto.SimpleLayerStationGeoDto",
        "stationCode": "039-mdburla",
        "lat": 20.060000000000002,
        "lon": 86.01,
        "savedAt": "2020-10-09",
        "name": "Nimapara",
        "type": "Level",
        "layerStationStationCode": "039-mdburla"
    },
    "002-MGD4PTN": {
        "@class": "com.eptisa.dto.SimpleLayerStationGeoDto",
        "stationCode": "002-MGD4PTN",
        "lat": 26.658708333333333,
        "lon": 85.013675,
        "savedAt": "2020-10-09",
        "name": "Lalbegiaghat",
        "type": "Level",
        "layerStationStationCode": "002-MGD4PTN"
    },
    "005-mgd4ptn": {
        "@class": "com.eptisa.dto.SimpleLayerStationGeoDto",
        "stationCode": "005-mgd4ptn",
        "lat": 25.860555555555557,
        "lon": 85.80444444444444,
        "savedAt": "2020-10-09",
        "name": "Samastipur",
        "type": "Level",
        "layerStationStationCode": "005-mgd4ptn"
    },
    "007-mgd4ptn": {
        "@class": "com.eptisa.dto.SimpleLayerStationGeoDto",
        "stationCode": "007-mgd4ptn",
        "lat": 25.487222222222222,
        "lon": 86.4375,
        "savedAt": "2020-10-09",
        "name": "Khagaria",
        "type": "Level",
        "layerStationStationCode": "007-mgd4ptn"
    },
    "005-LBDJPG": {
        "@class": "com.eptisa.dto.SimpleLayerStationGeoDto",
        "stationCode": "005-LBDJPG",
        "lat": 26.01,
        "lon": 89.99,
        "savedAt": "2020-10-09",
        "name": "Dhubri",
        "type": "Level",
        "layerStationStationCode": "005-LBDJPG"
    },
    "014-mgd2lkn": {
        "@class": "com.eptisa.dto.SimpleLayerStationGeoDto",
        "stationCode": "014-mgd2lkn",
        "lat": 26.861944444444447,
        "lon": 80.94611111111111,
        "savedAt": "2020-10-09",
        "name": "Lucknow (Hanuman Setu)",
        "type": "Level",
        "layerStationStationCode": "014-mgd2lkn"
    },
    "011-mgd2lkn": {
        "@class": "com.eptisa.dto.SimpleLayerStationGeoDto",
        "stationCode": "011-mgd2lkn",
        "lat": 26.93305555555556,
        "lon": 80.03277777777778,
        "savedAt": "2020-10-09",
        "name": "Ankinghat",
        "type": "Level",
        "layerStationStationCode": "011-mgd2lkn"
    },
    "015-HGDDDN": {
        "@class": "com.eptisa.dto.SimpleLayerStationGeoDto",
        "stationCode": "015-HGDDDN",
        "lat": 29.979999999999997,
        "lon": 78.19,
        "savedAt": "2020-10-09",
        "name": "Haridwar (Dudhia Band)",
        "type": "Level",
        "layerStationStationCode": "015-HGDDDN"
    },
    "008-SWRDKOCHI": {
        "@class": "com.eptisa.dto.SimpleLayerStationGeoDto",
        "stationCode": "008-SWRDKOCHI",
        "lat": 10.854444444444445,
        "lon": 76.02,
        "savedAt": "2020-10-09",
        "name": "KUMBIDI",
        "type": "Level",
        "layerStationStationCode": "008-SWRDKOCHI"
    },
    "015-UYDDEL": {
        "@class": "com.eptisa.dto.SimpleLayerStationGeoDto",
        "stationCode": "015-UYDDEL",
        "lat": 28.662499999999998,
        "lon": 77.24888888888889,
        "savedAt": "2020-10-09",
        "name": "Delhi Railway Bridge",
        "type": "Level",
        "layerStationStationCode": "015-UYDDEL"
    },
    "028-MGD5PTN": {
        "@class": "com.eptisa.dto.SimpleLayerStationGeoDto",
        "stationCode": "028-MGD5PTN",
        "lat": 24.8,
        "lon": 87.92,
        "savedAt": "2020-10-09",
        "name": "Farakka(FF)",
        "type": "Level",
        "layerStationStationCode": "028-MGD5PTN"
    },
    "047-ERDBWN": {
        "@class": "com.eptisa.dto.SimpleLayerStationGeoDto",
        "stationCode": "047-ERDBWN",
        "lat": 18.63,
        "lon": 83.22,
        "savedAt": "2020-10-09",
        "name": "Madduvalasa",
        "type": "Inflow",
        "layerStationStationCode": "047-ERDBWN"
    },
    "005-LYDAGRA": {
        "@class": "com.eptisa.dto.SimpleLayerStationGeoDto",
        "stationCode": "005-LYDAGRA",
        "lat": 26.429166666666667,
        "lon": 79.47805555555556,
        "savedAt": "2020-10-09",
        "name": "AURAIYA",
        "type": "Level",
        "layerStationStationCode": "005-LYDAGRA"
    },
    "003-TDSURAT": {
        "@class": "com.eptisa.dto.SimpleLayerStationGeoDto",
        "stationCode": "003-TDSURAT",
        "lat": 21.89,
        "lon": 73.65,
        "savedAt": "2020-10-09",
        "name": "Garudeshwar",
        "type": "Level",
        "layerStationStationCode": "003-TDSURAT"
    },
    "004-TDSURAT": {
        "@class": "com.eptisa.dto.SimpleLayerStationGeoDto",
        "stationCode": "004-TDSURAT",
        "lat": 21.7,
        "lon": 73,
        "savedAt": "2020-10-09",
        "name": "Bharuch",
        "type": "Level",
        "layerStationStationCode": "004-TDSURAT"
    },
    "028-wgdngp": {
        "@class": "com.eptisa.dto.SimpleLayerStationGeoDto",
        "stationCode": "028-wgdngp",
        "lat": 19.509722222222223,
        "lon": 79.58638888888889,
        "savedAt": "2020-10-09",
        "name": "Sirpur (Town)",
        "type": "Level",
        "layerStationStationCode": "028-wgdngp"
    },
    "032-TDSURAT": {
        "@class": "com.eptisa.dto.SimpleLayerStationGeoDto",
        "stationCode": "032-TDSURAT",
        "lat": 20.41,
        "lon": 72.83999999999999,
        "savedAt": "2020-10-09",
        "name": "DAMAN",
        "type": "Level",
        "layerStationStationCode": "032-TDSURAT"
    },
    "060 MDBURLA": {
        "@class": "com.eptisa.dto.SimpleLayerStationGeoDto",
        "stationCode": "060 MDBURLA",
        "lat": 20.610000000000003,
        "lon": 81.56,
        "savedAt": "2020-10-09",
        "name": "RAVISHANKAR SAGAR DAM",
        "type": "Inflow",
        "layerStationStationCode": "060 MDBURLA"
    },
    "021-MBDGHY": {
        "@class": "com.eptisa.dto.SimpleLayerStationGeoDto",
        "stationCode": "021-MBDGHY",
        "lat": 24.878611111111113,
        "lon": 92.35666666666665,
        "savedAt": "2020-10-09",
        "name": "Karimganj",
        "type": "Level",
        "layerStationStationCode": "021-MBDGHY"
    },
    "010-NDBHP": {
        "@class": "com.eptisa.dto.SimpleLayerStationGeoDto",
        "stationCode": "010-NDBHP",
        "lat": 22.593888888888888,
        "lon": 80.37388888888889,
        "savedAt": "2020-10-09",
        "name": "Mandla",
        "type": "Level",
        "layerStationStationCode": "010-NDBHP"
    },
    "015-UGDHYD": {
        "@class": "com.eptisa.dto.SimpleLayerStationGeoDto",
        "stationCode": "015-UGDHYD",
        "lat": 19.15,
        "lon": 77.31,
        "savedAt": "2020-10-09",
        "name": "Nanded",
        "type": "Level",
        "layerStationStationCode": "015-UGDHYD"
    },
    "006-mgd4ptn": {
        "@class": "com.eptisa.dto.SimpleLayerStationGeoDto",
        "stationCode": "006-mgd4ptn",
        "lat": 25.749722222222225,
        "lon": 86.02111111111111,
        "savedAt": "2020-10-09",
        "name": "Rosera",
        "type": "Level",
        "layerStationStationCode": "006-mgd4ptn"
    },
    "016-NDBHP": {
        "@class": "com.eptisa.dto.SimpleLayerStationGeoDto",
        "stationCode": "016-NDBHP",
        "lat": 22.76,
        "lon": 77.69,
        "savedAt": "2020-10-09",
        "name": "Narmadapuram",
        "type": "Level",
        "layerStationStationCode": "016-NDBHP"
    },
    "023-TDSURAT": {
        "@class": "com.eptisa.dto.SimpleLayerStationGeoDto",
        "stationCode": "023-TDSURAT",
        "lat": 21.2,
        "lon": 72.82,
        "savedAt": "2020-10-09",
        "name": "Surat",
        "type": "Level",
        "layerStationStationCode": "023-TDSURAT"
    },
    "033-wgdngp": {
        "@class": "com.eptisa.dto.SimpleLayerStationGeoDto",
        "stationCode": "033-wgdngp",
        "lat": 21.541666666666668,
        "lon": 79.54166666666667,
        "savedAt": "2021-06-01",
        "name": "Bawanthadi Reservoir",
        "type": "Inflow",
        "layerStationStationCode": "033-wgdngp"
    },
    "DWRIS-05": {
        "@class": "com.eptisa.dto.SimpleLayerStationGeoDto",
        "stationCode": "DWRIS-05",
        "lat": 27.171666666666667,
        "lon": 88.29944444444445,
        "savedAt": "2020-10-09",
        "name": "Rothak",
        "type": "Level",
        "layerStationStationCode": "DWRIS-05"
    },
    "NBO-2-050-1251": {
        "@class": "com.eptisa.dto.SimpleLayerStationGeoDto",
        "stationCode": "NBO-2-050-1251",
        "lat": 22.961944444444445,
        "lon": 77.34277777777777,
        "savedAt": "2020-10-09",
        "name": "Kolar Reservoir",
        "type": "Inflow",
        "layerStationStationCode": "NBO-2-050-1251"
    },
    "006-mgd5ptn": {
        "@class": "com.eptisa.dto.SimpleLayerStationGeoDto",
        "stationCode": "006-mgd5ptn",
        "lat": 25.269444444444442,
        "lon": 87.01555555555555,
        "savedAt": "2020-10-09",
        "name": "Bhagalpur",
        "type": "Level",
        "layerStationStationCode": "006-mgd5ptn"
    },
    "012-UYDDEL": {
        "@class": "com.eptisa.dto.SimpleLayerStationGeoDto",
        "stationCode": "012-UYDDEL",
        "lat": 29.3825,
        "lon": 77.15444444444445,
        "savedAt": "2020-10-09",
        "name": "Mawi ",
        "type": "Level",
        "layerStationStationCode": "012-UYDDEL"
    },
    "010-mgd4ptn": {
        "@class": "com.eptisa.dto.SimpleLayerStationGeoDto",
        "stationCode": "010-mgd4ptn",
        "lat": 26.532777777777778,
        "lon": 84.5586111111111,
        "savedAt": "2020-10-09",
        "name": "Chatia",
        "type": "Level",
        "layerStationStationCode": "010-mgd4ptn"
    },
    "004-LBDJPG": {
        "@class": "com.eptisa.dto.SimpleLayerStationGeoDto",
        "stationCode": "004-LBDJPG",
        "lat": 26.464166666666667,
        "lon": 90.75,
        "savedAt": "2020-10-09",
        "name": "Manas N H Crossing",
        "type": "Level",
        "layerStationStationCode": "004-LBDJPG"
    },
    "011-MGD5PTN": {
        "@class": "com.eptisa.dto.SimpleLayerStationGeoDto",
        "stationCode": "011-MGD5PTN",
        "lat": 25.689444444444444,
        "lon": 85.19666666666667,
        "savedAt": "2020-10-09",
        "name": "Hajipur",
        "type": "Level",
        "layerStationStationCode": "011-MGD5PTN"
    },
    "013-MGD5PTN": {
        "@class": "com.eptisa.dto.SimpleLayerStationGeoDto",
        "stationCode": "013-MGD5PTN",
        "lat": 25.940277777777776,
        "lon": 84.39194444444445,
        "savedAt": "2020-10-09",
        "name": "Gangpur Siswan",
        "type": "Level",
        "layerStationStationCode": "013-MGD5PTN"
    },
    "014-MGD5PTN": {
        "@class": "com.eptisa.dto.SimpleLayerStationGeoDto",
        "stationCode": "014-MGD5PTN",
        "lat": 25.754166666666666,
        "lon": 84.7875,
        "savedAt": "2020-10-09",
        "name": "Chhapra",
        "type": "Level",
        "layerStationStationCode": "014-MGD5PTN"
    },
    "021-mgd5ptn": {
        "@class": "com.eptisa.dto.SimpleLayerStationGeoDto",
        "stationCode": "021-mgd5ptn",
        "lat": 25.50027777777778,
        "lon": 85.10944444444443,
        "savedAt": "2020-10-09",
        "name": "Sripalpur",
        "type": "Level",
        "layerStationStationCode": "021-mgd5ptn"
    },
    "009-LYDAGRA": {
        "@class": "com.eptisa.dto.SimpleLayerStationGeoDto",
        "stationCode": "009-LYDAGRA",
        "lat": 25.82361111111111,
        "lon": 79.4625,
        "savedAt": "2020-10-09",
        "name": "MOHANA",
        "type": "Level",
        "layerStationStationCode": "009-LYDAGRA"
    },
    "010-MGD1LKn": {
        "@class": "com.eptisa.dto.SimpleLayerStationGeoDto",
        "stationCode": "010-MGD1LKn",
        "lat": 27.0952,
        "lon": 81.48606666666667,
        "savedAt": "2020-10-09",
        "name": "Elginbridge",
        "type": "Level",
        "layerStationStationCode": "010-MGD1LKn"
    },
    "010-mgd3vns": {
        "@class": "com.eptisa.dto.SimpleLayerStationGeoDto",
        "stationCode": "010-mgd3vns",
        "lat": 25.749166666666667,
        "lon": 82.67194444444445,
        "savedAt": "2020-10-09",
        "name": "Jaunpur",
        "type": "Level",
        "layerStationStationCode": "010-mgd3vns"
    },
    "002-MGD3VNS": {
        "@class": "com.eptisa.dto.SimpleLayerStationGeoDto",
        "stationCode": "002-MGD3VNS",
        "lat": 25.504166666666666,
        "lon": 81.86333333333333,
        "savedAt": "2020-10-09",
        "name": "PHAPHAMAU",
        "type": "Level",
        "layerStationStationCode": "002-MGD3VNS"
    },
    "002-LYDAGRA": {
        "@class": "com.eptisa.dto.SimpleLayerStationGeoDto",
        "stationCode": "002-LYDAGRA",
        "lat": 26.746666666666666,
        "lon": 78.98666666666666,
        "savedAt": "2020-10-09",
        "name": "ETAWAH",
        "type": "Level",
        "layerStationStationCode": "002-LYDAGRA"
    },
    "008-MGD5PTN": {
        "@class": "com.eptisa.dto.SimpleLayerStationGeoDto",
        "stationCode": "008-MGD5PTN",
        "lat": 25.247777777777777,
        "lon": 87.64916666666667,
        "savedAt": "2020-10-09",
        "name": "Sahibganj",
        "type": "Level",
        "layerStationStationCode": "008-MGD5PTN"
    },
    "012-ubddib": {
        "@class": "com.eptisa.dto.SimpleLayerStationGeoDto",
        "stationCode": "012-ubddib",
        "lat": 27.29388888888889,
        "lon": 95.33138888888888,
        "savedAt": "2020-10-09",
        "name": "Naharkatia",
        "type": "Level",
        "layerStationStationCode": "012-ubddib"
    },
    "003-MGD1LKN": {
        "@class": "com.eptisa.dto.SimpleLayerStationGeoDto",
        "stationCode": "003-MGD1LKN",
        "lat": 27.89527777777778,
        "lon": 81.77444444444444,
        "savedAt": "2020-10-09",
        "name": "Kakardhari",
        "type": "Level",
        "layerStationStationCode": "003-MGD1LKN"
    },
    "010-UBDDIB": {
        "@class": "com.eptisa.dto.SimpleLayerStationGeoDto",
        "stationCode": "010-UBDDIB",
        "lat": 27.488611111111112,
        "lon": 94.90972222222223,
        "savedAt": "2020-10-09",
        "name": "Dibrugarh",
        "type": "Level",
        "layerStationStationCode": "010-UBDDIB"
    },
    "027-MGD5PTN": {
        "@class": "com.eptisa.dto.SimpleLayerStationGeoDto",
        "stationCode": "027-MGD5PTN",
        "lat": 25.692222222222224,
        "lon": 84.87277777777777,
        "savedAt": "2020-10-09",
        "name": "Maner",
        "type": "Level",
        "layerStationStationCode": "027-MGD5PTN"
    },
    "022-UBDDIB": {
        "@class": "com.eptisa.dto.SimpleLayerStationGeoDto",
        "stationCode": "022-UBDDIB",
        "lat": 26.948911111111112,
        "lon": 93.96211111111111,
        "savedAt": "2020-10-09",
        "name": "Badatighat",
        "type": "Level",
        "layerStationStationCode": "022-UBDDIB"
    },
    "002-MGD5PTN": {
        "@class": "com.eptisa.dto.SimpleLayerStationGeoDto",
        "stationCode": "002-MGD5PTN",
        "lat": 25.648333333333333,
        "lon": 85.06777777777778,
        "savedAt": "2020-10-09",
        "name": "Dighaghat",
        "type": "Level",
        "layerStationStationCode": "002-MGD5PTN"
    },
    "030-mgd4ptn": {
        "@class": "com.eptisa.dto.SimpleLayerStationGeoDto",
        "stationCode": "030-mgd4ptn",
        "lat": 25.850555555555555,
        "lon": 87.80611111111111,
        "savedAt": "2020-10-09",
        "name": "Dhengraghat",
        "type": "Level",
        "layerStationStationCode": "030-mgd4ptn"
    },
    "031-mgd4ptn": {
        "@class": "com.eptisa.dto.SimpleLayerStationGeoDto",
        "stationCode": "031-mgd4ptn",
        "lat": 25.61277777777778,
        "lon": 87.78722222222223,
        "savedAt": "2020-10-09",
        "name": "Jhawa",
        "type": "Level",
        "layerStationStationCode": "031-mgd4ptn"
    },
    "023-mgd4ptn": {
        "@class": "com.eptisa.dto.SimpleLayerStationGeoDto",
        "stationCode": "023-mgd4ptn",
        "lat": 26.108333333333334,
        "lon": 86.52833333333334,
        "savedAt": "2020-10-09",
        "name": "Basua",
        "type": "Level",
        "layerStationStationCode": "023-mgd4ptn"
    },
    "027-LGDHYD": {
        "@class": "com.eptisa.dto.SimpleLayerStationGeoDto",
        "stationCode": "027-LGDHYD",
        "lat": 17.006944444444443,
        "lon": 81.76694444444445,
        "savedAt": "2020-10-09",
        "name": "GodavariRlyBridge(Rajahmundry)",
        "type": "Level",
        "layerStationStationCode": "027-LGDHYD"
    },
    "019-UBDDIB": {
        "@class": "com.eptisa.dto.SimpleLayerStationGeoDto",
        "stationCode": "019-UBDDIB",
        "lat": 26.860561111111114,
        "lon": 94.25160555555556,
        "savedAt": "2020-10-09",
        "name": "Neamatighat",
        "type": "Level",
        "layerStationStationCode": "019-UBDDIB"
    },
    "009-MGD5PTN": {
        "@class": "com.eptisa.dto.SimpleLayerStationGeoDto",
        "stationCode": "009-MGD5PTN",
        "lat": 25.992222222222225,
        "lon": 85.05222222222221,
        "savedAt": "2020-10-09",
        "name": "Rewaghat",
        "type": "Level",
        "layerStationStationCode": "009-MGD5PTN"
    },
    "01-11-01-006": {
        "@class": "com.eptisa.dto.SimpleLayerStationGeoDto",
        "stationCode": "01-11-01-006",
        "lat": 24.87527777777778,
        "lon": 92.57833333333333,
        "savedAt": "2020-10-09",
        "name": "Badarpur Ghat",
        "type": "Level",
        "layerStationStationCode": "01-11-01-006"
    },
    "014-HGDDDN": {
        "@class": "com.eptisa.dto.SimpleLayerStationGeoDto",
        "stationCode": "014-HGDDDN",
        "lat": 30.110000000000003,
        "lon": 78.31,
        "savedAt": "2020-10-09",
        "name": "Rishikesh",
        "type": "Level",
        "layerStationStationCode": "014-HGDDDN"
    },
    "008-LBDJPG": {
        "@class": "com.eptisa.dto.SimpleLayerStationGeoDto",
        "stationCode": "008-LBDJPG",
        "lat": 26.107222222222223,
        "lon": 89.8236111111111,
        "savedAt": "2020-10-09",
        "name": "Golokganj",
        "type": "Level",
        "layerStationStationCode": "008-LBDJPG"
    },
    "004-MGD2LKN": {
        "@class": "com.eptisa.dto.SimpleLayerStationGeoDto",
        "stationCode": "004-MGD2LKN",
        "lat": 27.012777777777778,
        "lon": 79.98416666666667,
        "savedAt": "2020-10-09",
        "name": "Kannauj",
        "type": "Level",
        "layerStationStationCode": "004-MGD2LKN"
    },
    "017-UYDDEL": {
        "@class": "com.eptisa.dto.SimpleLayerStationGeoDto",
        "stationCode": "017-UYDDEL",
        "lat": 27.50412222222222,
        "lon": 77.68723333333334,
        "savedAt": "2020-10-09",
        "name": "Mathura (Prayag ghat)",
        "type": "Level",
        "layerStationStationCode": "017-UYDDEL"
    },
    "016-mgd2lkn": {
        "@class": "com.eptisa.dto.SimpleLayerStationGeoDto",
        "stationCode": "016-mgd2lkn",
        "lat": 26.203333333333333,
        "lon": 81.24666666666667,
        "savedAt": "2020-10-09",
        "name": "Rae bareli",
        "type": "Level",
        "layerStationStationCode": "016-mgd2lkn"
    },
    "005-ERDBWN": {
        "@class": "com.eptisa.dto.SimpleLayerStationGeoDto",
        "stationCode": "005-ERDBWN",
        "lat": 21.547777777777778,
        "lon": 86.91805555555555,
        "savedAt": "2020-10-09",
        "name": "Govindpur (NH5 Road Bridge)",
        "type": "Level",
        "layerStationStationCode": "005-ERDBWN"
    },
    "011-MBDGHY": {
        "@class": "com.eptisa.dto.SimpleLayerStationGeoDto",
        "stationCode": "011-MBDGHY",
        "lat": 24.87527777777778,
        "lon": 92.57833333333333,
        "savedAt": "2020-10-09",
        "name": "Badarpurghat",
        "type": "Level",
        "layerStationStationCode": "011-MBDGHY"
    },
    "002-mgd2lkn": {
        "@class": "com.eptisa.dto.SimpleLayerStationGeoDto",
        "stationCode": "002-mgd2lkn",
        "lat": 27.931944444444447,
        "lon": 78.8625,
        "savedAt": "2020-10-09",
        "name": "Kachhlabridge",
        "type": "Level",
        "layerStationStationCode": "002-mgd2lkn"
    },
    "005-mgd3vns": {
        "@class": "com.eptisa.dto.SimpleLayerStationGeoDto",
        "stationCode": "005-mgd3vns",
        "lat": 25.1546,
        "lon": 82.5296,
        "savedAt": "2020-10-09",
        "name": "Mirzapur",
        "type": "Level",
        "layerStationStationCode": "005-mgd3vns"
    },
    "012-MGD1LKN": {
        "@class": "com.eptisa.dto.SimpleLayerStationGeoDto",
        "stationCode": "012-MGD1LKN",
        "lat": 26.141111111111112,
        "lon": 83.87472222222222,
        "savedAt": "2020-10-09",
        "name": "Turtipar",
        "type": "Level",
        "layerStationStationCode": "012-MGD1LKN"
    },
    "001-MBDGHY": {
        "@class": "com.eptisa.dto.SimpleLayerStationGeoDto",
        "stationCode": "001-MBDGHY",
        "lat": 26.190277777777776,
        "lon": 91.745,
        "savedAt": "2020-10-09",
        "name": "Guwahati(D.C.Court)",
        "type": "Level",
        "layerStationStationCode": "001-MBDGHY"
    },
    "007-MGD3VNS": {
        "@class": "com.eptisa.dto.SimpleLayerStationGeoDto",
        "stationCode": "007-MGD3VNS",
        "lat": 25.580016666666666,
        "lon": 83.58834999999999,
        "savedAt": "2020-10-09",
        "name": "Ghazipur",
        "type": "Level",
        "layerStationStationCode": "007-MGD3VNS"
    },
    "013-UBDDIB": {
        "@class": "com.eptisa.dto.SimpleLayerStationGeoDto",
        "stationCode": "013-UBDDIB",
        "lat": 27.31222222222222,
        "lon": 94.88166666666666,
        "savedAt": "2020-10-09",
        "name": "Chenimari (Khowang)",
        "type": "Level",
        "layerStationStationCode": "013-UBDDIB"
    },
    "003-MGD5PTN": {
        "@class": "com.eptisa.dto.SimpleLayerStationGeoDto",
        "stationCode": "003-MGD5PTN",
        "lat": 25.621944444444445,
        "lon": 85.17111111111112,
        "savedAt": "2020-10-09",
        "name": "Gandhighat",
        "type": "Level",
        "layerStationStationCode": "003-MGD5PTN"
    },
    "018-mgd4ptn": {
        "@class": "com.eptisa.dto.SimpleLayerStationGeoDto",
        "stationCode": "018-mgd4ptn",
        "lat": 26.0375,
        "lon": 85.8863888888889,
        "savedAt": "2020-10-09",
        "name": "Hayaghat",
        "type": "Level",
        "layerStationStationCode": "018-mgd4ptn"
    },
    "006-UGDHYD": {
        "@class": "com.eptisa.dto.SimpleLayerStationGeoDto",
        "stationCode": "006-UGDHYD",
        "lat": 19.89,
        "lon": 74.49,
        "savedAt": "2020-10-09",
        "name": "Kopergaon",
        "type": "Level",
        "layerStationStationCode": "006-UGDHYD"
    },
    "004-MBDGHY": {
        "@class": "com.eptisa.dto.SimpleLayerStationGeoDto",
        "stationCode": "004-MBDGHY",
        "lat": 26.45,
        "lon": 91.46,
        "savedAt": "2020-10-09",
        "name": "Pagladiya N T Road Crossing",
        "type": "Level",
        "layerStationStationCode": "004-MBDGHY"
    },
    "001-LYDAGRA": {
        "@class": "com.eptisa.dto.SimpleLayerStationGeoDto",
        "stationCode": "001-LYDAGRA",
        "lat": 27.19,
        "lon": 78.03,
        "savedAt": "2020-10-09",
        "name": "AGRA (J.B.)",
        "type": "Level",
        "layerStationStationCode": "001-LYDAGRA"
    },
    "022-UYDDEL": {
        "@class": "com.eptisa.dto.SimpleLayerStationGeoDto",
        "stationCode": "022-UYDDEL",
        "lat": 28.534444444444446,
        "lon": 76.87055555555555,
        "savedAt": "2020-10-09",
        "name": "Dhansa",
        "type": "Level",
        "layerStationStationCode": "022-UYDDEL"
    },
    "012-UGDHYD": {
        "@class": "com.eptisa.dto.SimpleLayerStationGeoDto",
        "stationCode": "012-UGDHYD",
        "lat": 18.979999999999997,
        "lon": 76.75,
        "savedAt": "2020-10-09",
        "name": "Gangakhed W/L Station",
        "type": "Level",
        "layerStationStationCode": "012-UGDHYD"
    },
    "013-lkdhyd": {
        "@class": "com.eptisa.dto.SimpleLayerStationGeoDto",
        "stationCode": "013-lkdhyd",
        "lat": 15.94,
        "lon": 77.42,
        "savedAt": "2020-10-09",
        "name": "Mantralayam",
        "type": "Level",
        "layerStationStationCode": "013-lkdhyd"
    },
    "006-LGDHYD": {
        "@class": "com.eptisa.dto.SimpleLayerStationGeoDto",
        "stationCode": "006-LGDHYD",
        "lat": 19.108055555555556,
        "lon": 82.02277777777778,
        "savedAt": "2020-10-09",
        "name": "Jagdalpur",
        "type": "Level",
        "layerStationStationCode": "006-LGDHYD"
    },
    "017-LGDHYD": {
        "@class": "com.eptisa.dto.SimpleLayerStationGeoDto",
        "stationCode": "017-LGDHYD",
        "lat": 17.669444444444444,
        "lon": 80.87388888888889,
        "savedAt": "2020-10-09",
        "name": "Bhadrachalam",
        "type": "Level",
        "layerStationStationCode": "017-LGDHYD"
    },
    "030-UBDDIB": {
        "@class": "com.eptisa.dto.SimpleLayerStationGeoDto",
        "stationCode": "030-UBDDIB",
        "lat": 26.810000000000002,
        "lon": 92.87972222222221,
        "savedAt": "2021-06-15",
        "name": "NT Road Crossing Jia-Bharali",
        "type": "Level",
        "layerStationStationCode": "030-UBDDIB"
    },
    "024-MGD4PTN": {
        "@class": "com.eptisa.dto.SimpleLayerStationGeoDto",
        "stationCode": "024-MGD4PTN",
        "lat": 25.54138888888889,
        "lon": 86.7225,
        "savedAt": "2020-10-09",
        "name": "Baltara",
        "type": "Level",
        "layerStationStationCode": "024-MGD4PTN"
    },
    "36-UBDDIB": {
        "@class": "com.eptisa.dto.SimpleLayerStationGeoDto",
        "stationCode": "36-UBDDIB",
        "lat": 27.204275,
        "lon": 94.05960555555555,
        "savedAt": "2020-10-09",
        "name": "Ranganadi NT Road crossing",
        "type": "Level",
        "layerStationStationCode": "36-UBDDIB"
    },
    "021-MGD4PTN": {
        "@class": "com.eptisa.dto.SimpleLayerStationGeoDto",
        "stationCode": "021-MGD4PTN",
        "lat": 26.22611111111111,
        "lon": 86.25611111111111,
        "savedAt": "2020-10-09",
        "name": "Jhanjharpur",
        "type": "Level",
        "layerStationStationCode": "021-MGD4PTN"
    },
    "018-MGD1LKN": {
        "@class": "com.eptisa.dto.SimpleLayerStationGeoDto",
        "stationCode": "018-MGD1LKN",
        "lat": 27.435277777777777,
        "lon": 82.22944444444444,
        "savedAt": "2020-10-09",
        "name": "Balrampur",
        "type": "Level",
        "layerStationStationCode": "018-MGD1LKN"
    },
    "0010-LYDAGRA": {
        "@class": "com.eptisa.dto.SimpleLayerStationGeoDto",
        "stationCode": "0010-LYDAGRA",
        "lat": 25.94472222222222,
        "lon": 80.15333333333334,
        "savedAt": "2020-10-09",
        "name": "SAHIJINA",
        "type": "Level",
        "layerStationStationCode": "0010-LYDAGRA"
    },
    "024-LGDHYD": {
        "@class": "com.eptisa.dto.SimpleLayerStationGeoDto",
        "stationCode": "024-LGDHYD",
        "lat": 17.5675,
        "lon": 81.25,
        "savedAt": "2020-10-09",
        "name": "Kunavaram",
        "type": "Level",
        "layerStationStationCode": "024-LGDHYD"
    },
    "023-LBDJPG": {
        "@class": "com.eptisa.dto.SimpleLayerStationGeoDto",
        "stationCode": "023-LBDJPG",
        "lat": 26.328888888888887,
        "lon": 88.8625,
        "savedAt": "2020-10-09",
        "name": "Mekhliganj (R/B)",
        "type": "Level",
        "layerStationStationCode": "023-LBDJPG"
    },
    "008-MGD3VNS": {
        "@class": "com.eptisa.dto.SimpleLayerStationGeoDto",
        "stationCode": "008-MGD3VNS",
        "lat": 25.75,
        "lon": 84.38333333333334,
        "savedAt": "2020-10-09",
        "name": "Ballia",
        "type": "Level",
        "layerStationStationCode": "008-MGD3VNS"
    },
    "018-ubddib": {
        "@class": "com.eptisa.dto.SimpleLayerStationGeoDto",
        "stationCode": "018-ubddib",
        "lat": 26.98173611111111,
        "lon": 94.57904166666667,
        "savedAt": "2020-10-09",
        "name": "Sivasagar",
        "type": "Level",
        "layerStationStationCode": "018-ubddib"
    },
    "011-mgd4ptn": {
        "@class": "com.eptisa.dto.SimpleLayerStationGeoDto",
        "stationCode": "011-mgd4ptn",
        "lat": 26.358861111111114,
        "lon": 84.74814722222223,
        "savedAt": "2020-10-09",
        "name": "Dumariaghat",
        "type": "Level",
        "layerStationStationCode": "011-mgd4ptn"
    },
    "019-MGD1LKN": {
        "@class": "com.eptisa.dto.SimpleLayerStationGeoDto",
        "stationCode": "019-MGD1LKN",
        "lat": 27.189166666666665,
        "lon": 82.94,
        "savedAt": "2020-10-09",
        "name": "Bansi ",
        "type": "Level",
        "layerStationStationCode": "019-MGD1LKN"
    },
    "033-UBDDIB": {
        "@class": "com.eptisa.dto.SimpleLayerStationGeoDto",
        "stationCode": "033-UBDDIB",
        "lat": 26.152777777777775,
        "lon": 92.65333333333334,
        "savedAt": "2020-10-09",
        "name": "Kampur",
        "type": "Level",
        "layerStationStationCode": "033-UBDDIB"
    },
    "034-UKDPUNE": {
        "@class": "com.eptisa.dto.SimpleLayerStationGeoDto",
        "stationCode": "034-UKDPUNE",
        "lat": 17.13,
        "lon": 73.86,
        "savedAt": "2020-10-09",
        "name": "Warna Dam",
        "type": "Inflow",
        "layerStationStationCode": "034-UKDPUNE"
    },
    "054-UBDDIB": {
        "@class": "com.eptisa.dto.SimpleLayerStationGeoDto",
        "stationCode": "054-UBDDIB",
        "lat": 27.553611111111113,
        "lon": 94.25861111111111,
        "savedAt": "2020-10-09",
        "name": "Subansiri Lower Dam",
        "type": "Inflow",
        "layerStationStationCode": "054-UBDDIB"
    },
    "020-LYDAGRA": {
        "@class": "com.eptisa.dto.SimpleLayerStationGeoDto",
        "stationCode": "020-LYDAGRA",
        "lat": 25.42,
        "lon": 81.83999999999999,
        "savedAt": "2020-10-09",
        "name": "NAINI",
        "type": "Level",
        "layerStationStationCode": "020-LYDAGRA"
    },
    "007-CDJAIPUR": {
        "@class": "com.eptisa.dto.SimpleLayerStationGeoDto",
        "stationCode": "007-CDJAIPUR",
        "lat": 24.65,
        "lon": 75.61,
        "savedAt": "2020-10-09",
        "name": "Gandhi Sagar Reservoir",
        "type": "Inflow",
        "layerStationStationCode": "007-CDJAIPUR"
    },
    "015-MBDGHY": {
        "@class": "com.eptisa.dto.SimpleLayerStationGeoDto",
        "stationCode": "015-MBDGHY",
        "lat": 24.649444444444445,
        "lon": 92.60888888888888,
        "savedAt": "2020-10-09",
        "name": "Matijuri",
        "type": "Level",
        "layerStationStationCode": "015-MBDGHY"
    },
    "031-HDCHENNAI": {
        "@class": "com.eptisa.dto.SimpleLayerStationGeoDto",
        "stationCode": "031-HDCHENNAI",
        "lat": 12.2,
        "lon": 78.58999999999999,
        "savedAt": "2020-10-09",
        "name": "Sathanur Dam",
        "type": "Inflow",
        "layerStationStationCode": "031-HDCHENNAI"
    },
    "0034-cdbng": {
        "@class": "com.eptisa.dto.SimpleLayerStationGeoDto",
        "stationCode": "0034-cdbng",
        "lat": 12.425594444444444,
        "lon": 76.57249999999999,
        "savedAt": "2020-10-09",
        "name": "Krishnarajasagar Reservoir",
        "type": "Inflow",
        "layerStationStationCode": "0034-cdbng"
    },
    "009-MGD4PTN": {
        "@class": "com.eptisa.dto.SimpleLayerStationGeoDto",
        "stationCode": "009-MGD4PTN",
        "lat": 27.23084722222222,
        "lon": 83.8758611111111,
        "savedAt": "2020-10-09",
        "name": "Khadda",
        "type": "Level",
        "layerStationStationCode": "009-MGD4PTN"
    },
    "014-LYDAGRA": {
        "@class": "com.eptisa.dto.SimpleLayerStationGeoDto",
        "stationCode": "014-LYDAGRA",
        "lat": 25.481388888888887,
        "lon": 80.31222222222222,
        "savedAt": "2020-10-09",
        "name": "BANDA",
        "type": "Level",
        "layerStationStationCode": "014-LYDAGRA"
    },
    "008-UYDDEL": {
        "@class": "com.eptisa.dto.SimpleLayerStationGeoDto",
        "stationCode": "008-UYDDEL",
        "lat": 30.417705555555557,
        "lon": 77.62275833333332,
        "savedAt": "2020-10-09",
        "name": "Paonta",
        "type": "Level",
        "layerStationStationCode": "008-UYDDEL"
    },
    "0031-LKDHYD": {
        "@class": "com.eptisa.dto.SimpleLayerStationGeoDto",
        "stationCode": "0031-LKDHYD",
        "lat": 17.235,
        "lon": 79.52,
        "savedAt": "2020-10-09",
        "name": "Musi Dam",
        "type": "Inflow",
        "layerStationStationCode": "0031-LKDHYD"
    },
    "010-mgd2lkn": {
        "@class": "com.eptisa.dto.SimpleLayerStationGeoDto",
        "stationCode": "010-mgd2lkn",
        "lat": 27.498055555555556,
        "lon": 79.69722222222222,
        "savedAt": "2020-10-09",
        "name": "Dabri",
        "type": "Level",
        "layerStationStationCode": "010-mgd2lkn"
    },
    "0026-srdcbe": {
        "@class": "com.eptisa.dto.SimpleLayerStationGeoDto",
        "stationCode": "0026-srdcbe",
        "lat": 10.83,
        "lon": 78.81888888888888,
        "savedAt": "2020-10-09",
        "name": "Grand Anicut",
        "type": "Inflow",
        "layerStationStationCode": "0026-srdcbe"
    },
    "009-UYDDEL": {
        "@class": "com.eptisa.dto.SimpleLayerStationGeoDto",
        "stationCode": "009-UYDDEL",
        "lat": 30.314444444444444,
        "lon": 77.585,
        "savedAt": "2020-10-09",
        "name": "Hathnikund Barrage",
        "type": "Inflow",
        "layerStationStationCode": "009-UYDDEL"
    },
    "015-mgd4ptn": {
        "@class": "com.eptisa.dto.SimpleLayerStationGeoDto",
        "stationCode": "015-mgd4ptn",
        "lat": 26.7229,
        "lon": 85.32715833333333,
        "savedAt": "2020-10-09",
        "name": "Dheng Bridge",
        "type": "Level",
        "layerStationStationCode": "015-mgd4ptn"
    },
    "015-DDASL\t": {
        "@class": "com.eptisa.dto.SimpleLayerStationGeoDto",
        "stationCode": "015-DDASL\t",
        "lat": 22.83861111111111,
        "lon": 87.90361111111112,
        "savedAt": "2020-10-09",
        "name": "HARINKHOLA",
        "type": "Level",
        "layerStationStationCode": "015-DDASL\t"
    },
    "026-UBDDIB": {
        "@class": "com.eptisa.dto.SimpleLayerStationGeoDto",
        "stationCode": "026-UBDDIB",
        "lat": 26.503747222222223,
        "lon": 93.95166666666667,
        "savedAt": "2020-10-09",
        "name": "Golaghat",
        "type": "Level",
        "layerStationStationCode": "026-UBDDIB"
    },
    "005-UBDDIB": {
        "@class": "com.eptisa.dto.SimpleLayerStationGeoDto",
        "stationCode": "005-UBDDIB",
        "lat": 28.07777777777778,
        "lon": 95.33555555555554,
        "savedAt": "2020-10-09",
        "name": "Passighat",
        "type": "Level",
        "layerStationStationCode": "005-UBDDIB"
    },
    "012-erdbwn": {
        "@class": "com.eptisa.dto.SimpleLayerStationGeoDto",
        "stationCode": "012-erdbwn",
        "lat": 21.767777777777777,
        "lon": 87.16416666666667,
        "savedAt": "2020-10-09",
        "name": "Rajghat",
        "type": "Level",
        "layerStationStationCode": "012-erdbwn"
    },
    "029-LBDJPG": {
        "@class": "com.eptisa.dto.SimpleLayerStationGeoDto",
        "stationCode": "029-LBDJPG",
        "lat": 26.729166666666664,
        "lon": 89.32583333333334,
        "savedAt": "2020-10-09",
        "name": "Hasimara",
        "type": "Level",
        "layerStationStationCode": "029-LBDJPG"
    },
    "0025-SWRDKOCHI": {
        "@class": "com.eptisa.dto.SimpleLayerStationGeoDto",
        "stationCode": "0025-SWRDKOCHI",
        "lat": 10.22,
        "lon": 76.7,
        "savedAt": "2020-10-09",
        "name": "Idamalayar Reservoir",
        "type": "Inflow",
        "layerStationStationCode": "0025-SWRDKOCHI"
    },
    "016-LGDHYD": {
        "@class": "com.eptisa.dto.SimpleLayerStationGeoDto",
        "stationCode": "016-LGDHYD",
        "lat": 17.852500000000003,
        "lon": 80.88,
        "savedAt": "2020-10-09",
        "name": "Dummagudem",
        "type": "Level",
        "layerStationStationCode": "016-LGDHYD"
    },
    "030-MAHGAND ": {
        "@class": "com.eptisa.dto.SimpleLayerStationGeoDto",
        "stationCode": "030-MAHGAND ",
        "lat": 24.338055555555556,
        "lon": 72.33916666666666,
        "savedAt": "2020-10-09",
        "name": "Dantiwada Dam",
        "type": "Inflow",
        "layerStationStationCode": "030-MAHGAND "
    },
    "002-LGDHYD": {
        "@class": "com.eptisa.dto.SimpleLayerStationGeoDto",
        "stationCode": "002-LGDHYD",
        "lat": 18.82,
        "lon": 79.91000000000001,
        "savedAt": "2020-10-09",
        "name": "Kaleswaram",
        "type": "Level",
        "layerStationStationCode": "002-LGDHYD"
    },
    "032-ADSL": {
        "@class": "com.eptisa.dto.SimpleLayerStationGeoDto",
        "stationCode": "032-ADSL",
        "lat": 22.398333333333333,
        "lon": 87.3436111111111,
        "savedAt": "2020-10-09",
        "name": "Mohanpur",
        "type": "Level",
        "layerStationStationCode": "032-ADSL"
    },
    "001-LBDJPG": {
        "@class": "com.eptisa.dto.SimpleLayerStationGeoDto",
        "stationCode": "001-LBDJPG",
        "lat": 26.781944444444445,
        "lon": 90.95722222222223,
        "savedAt": "2020-10-09",
        "name": "Mathanguri",
        "type": "Level",
        "layerStationStationCode": "001-LBDJPG"
    },
    "DWRIS-04": {
        "@class": "com.eptisa.dto.SimpleLayerStationGeoDto",
        "stationCode": "DWRIS-04",
        "lat": 27.231666666666666,
        "lon": 88.49916666666667,
        "savedAt": "2020-10-09",
        "name": "Singtam",
        "type": "Level",
        "layerStationStationCode": "DWRIS-04"
    },
    "005-jhelum": {
        "@class": "com.eptisa.dto.SimpleLayerStationGeoDto",
        "stationCode": "005-jhelum",
        "lat": 34.06944444444445,
        "lon": 74.8386111111111,
        "savedAt": "2020-10-09",
        "name": "Rammunshibagh (near Srinagar)",
        "type": "Level",
        "layerStationStationCode": "005-jhelum"
    },
    "006-chejmu": {
        "@class": "com.eptisa.dto.SimpleLayerStationGeoDto",
        "stationCode": "006-chejmu",
        "lat": 34.24611111111111,
        "lon": 74.6325,
        "savedAt": "2020-10-09",
        "name": "Safapora",
        "type": "Level",
        "layerStationStationCode": "006-chejmu"
    },
    "012-mgd4ptn": {
        "@class": "com.eptisa.dto.SimpleLayerStationGeoDto",
        "stationCode": "012-mgd4ptn",
        "lat": 26.841388888888886,
        "lon": 85.58555555555554,
        "savedAt": "2020-10-09",
        "name": "Sonbarsa",
        "type": "Level",
        "layerStationStationCode": "012-mgd4ptn"
    },
    "015-LGDHYD": {
        "@class": "com.eptisa.dto.SimpleLayerStationGeoDto",
        "stationCode": "015-LGDHYD",
        "lat": 18.32,
        "lon": 80.46000000000001,
        "savedAt": "2020-10-09",
        "name": "Eturunagaram",
        "type": "Level",
        "layerStationStationCode": "015-LGDHYD"
    },
    "006-MGD3VNS": {
        "@class": "com.eptisa.dto.SimpleLayerStationGeoDto",
        "stationCode": "006-MGD3VNS",
        "lat": 25.325833333333332,
        "lon": 83.03999999999999,
        "savedAt": "2020-10-09",
        "name": "Varanasi",
        "type": "Level",
        "layerStationStationCode": "006-MGD3VNS"
    },
    "040-erdbwn": {
        "@class": "com.eptisa.dto.SimpleLayerStationGeoDto",
        "stationCode": "040-erdbwn",
        "lat": 18.313333333333333,
        "lon": 83.88416666666667,
        "savedAt": "2020-10-09",
        "name": "Srikakulam",
        "type": "Level",
        "layerStationStationCode": "040-erdbwn"
    },
    "021-UBDDIB": {
        "@class": "com.eptisa.dto.SimpleLayerStationGeoDto",
        "stationCode": "021-UBDDIB",
        "lat": 27.448805555555555,
        "lon": 94.25008333333334,
        "savedAt": "2020-10-09",
        "name": "Chouldhowaghat",
        "type": "Level",
        "layerStationStationCode": "021-UBDDIB"
    },
    "039LBDJPG": {
        "@class": "com.eptisa.dto.SimpleLayerStationGeoDto",
        "stationCode": "039LBDJPG",
        "lat": 26.39611111111111,
        "lon": 90.25416666666666,
        "savedAt": "2020-10-09",
        "name": "Kokrajhar",
        "type": "Level",
        "layerStationStationCode": "039LBDJPG"
    },
    "016-mgd4ptn": {
        "@class": "com.eptisa.dto.SimpleLayerStationGeoDto",
        "stationCode": "016-mgd4ptn",
        "lat": 26.346083333333333,
        "lon": 85.48632222222223,
        "savedAt": "2020-10-09",
        "name": "Runisaidpur",
        "type": "Level",
        "layerStationStationCode": "016-mgd4ptn"
    },
    "49-LGDHYD": {
        "@class": "com.eptisa.dto.SimpleLayerStationGeoDto",
        "stationCode": "49-LGDHYD",
        "lat": 18.453888888888887,
        "lon": 82.54694444444445,
        "savedAt": "2020-10-09",
        "name": "Jalaput dam (Machkund)",
        "type": "Inflow",
        "layerStationStationCode": "49-LGDHYD"
    },
    "052-MGD1LKN": {
        "@class": "com.eptisa.dto.SimpleLayerStationGeoDto",
        "stationCode": "052-MGD1LKN",
        "lat": 28.27,
        "lon": 81.08999999999999,
        "savedAt": "2020-10-09",
        "name": "Katerniaghat Barrage",
        "type": "Inflow",
        "layerStationStationCode": "052-MGD1LKN"
    },
    "NBO-1-028-1230": {
        "@class": "com.eptisa.dto.SimpleLayerStationGeoDto",
        "stationCode": "NBO-1-028-1230",
        "lat": 23.05,
        "lon": 78.06,
        "savedAt": "2020-10-09",
        "name": "Barna Reservoir",
        "type": "Inflow",
        "layerStationStationCode": "NBO-1-028-1230"
    },
    "017-MGD2LKN": {
        "@class": "com.eptisa.dto.SimpleLayerStationGeoDto",
        "stationCode": "017-MGD2LKN",
        "lat": 28.761388888888888,
        "lon": 78.14250000000001,
        "savedAt": "2020-10-09",
        "name": "Garhmukteshwar",
        "type": "Level",
        "layerStationStationCode": "017-MGD2LKN"
    },
    "003-MGD3VNS": {
        "@class": "com.eptisa.dto.SimpleLayerStationGeoDto",
        "stationCode": "003-MGD3VNS",
        "lat": 25.403055555555554,
        "lon": 81.9113888888889,
        "savedAt": "2020-10-09",
        "name": "Allahabad",
        "type": "Level",
        "layerStationStationCode": "003-MGD3VNS"
    },
    "025-DDASL": {
        "@class": "com.eptisa.dto.SimpleLayerStationGeoDto",
        "stationCode": "025-DDASL",
        "lat": 23.618055555555557,
        "lon": 87.70305555555557,
        "savedAt": "2020-10-09",
        "name": "GHEROPARA",
        "type": "Level",
        "layerStationStationCode": "025-DDASL"
    },
    "001-MGD5PTN": {
        "@class": "com.eptisa.dto.SimpleLayerStationGeoDto",
        "stationCode": "001-MGD5PTN",
        "lat": 25.578611111111112,
        "lon": 83.97555555555556,
        "savedAt": "2020-10-09",
        "name": "Buxar",
        "type": "Level",
        "layerStationStationCode": "001-MGD5PTN"
    },
    "011-UYDDEL": {
        "@class": "com.eptisa.dto.SimpleLayerStationGeoDto",
        "stationCode": "011-UYDDEL",
        "lat": 29.762183333333333,
        "lon": 77.13166666666666,
        "savedAt": "2020-10-09",
        "name": "Karnal",
        "type": "Level",
        "layerStationStationCode": "011-UYDDEL"
    },
    "026-MGD5PTN": {
        "@class": "com.eptisa.dto.SimpleLayerStationGeoDto",
        "stationCode": "026-MGD5PTN",
        "lat": 25.57138888888889,
        "lon": 84.79777777777778,
        "savedAt": "2020-10-09",
        "name": "Koelwar",
        "type": "Level",
        "layerStationStationCode": "026-MGD5PTN"
    },
    "017-mgd4ptn": {
        "@class": "com.eptisa.dto.SimpleLayerStationGeoDto",
        "stationCode": "017-mgd4ptn",
        "lat": 26.14472222222222,
        "lon": 85.69222222222223,
        "savedAt": "2020-10-09",
        "name": "Benibad",
        "type": "Level",
        "layerStationStationCode": "017-mgd4ptn"
    },
    "016-LYDAGRA": {
        "@class": "com.eptisa.dto.SimpleLayerStationGeoDto",
        "stationCode": "016-LYDAGRA",
        "lat": 25.960277777777776,
        "lon": 80.1538888888889,
        "savedAt": "2020-10-09",
        "name": "HAMIRPUR",
        "type": "Level",
        "layerStationStationCode": "016-LYDAGRA"
    },
    "013-mgd4ptn": {
        "@class": "com.eptisa.dto.SimpleLayerStationGeoDto",
        "stationCode": "013-mgd4ptn",
        "lat": 26.3475,
        "lon": 85.80138888888888,
        "savedAt": "2020-10-09",
        "name": "Kamtaul",
        "type": "Level",
        "layerStationStationCode": "013-mgd4ptn"
    },
    "030-LBDJPG": {
        "@class": "com.eptisa.dto.SimpleLayerStationGeoDto",
        "stationCode": "030-LBDJPG",
        "lat": 26.28666666666667,
        "lon": 89.45972222222223,
        "savedAt": "2020-10-09",
        "name": "Ghugumari",
        "type": "Level",
        "layerStationStationCode": "030-LBDJPG"
    },
    "025-LBDJPG": {
        "@class": "com.eptisa.dto.SimpleLayerStationGeoDto",
        "stationCode": "025-LBDJPG",
        "lat": 26.308611111111112,
        "lon": 89.68194444444445,
        "savedAt": "2020-10-09",
        "name": "Tufanganj",
        "type": "Level",
        "layerStationStationCode": "025-LBDJPG"
    },
    "002-LBDJPG": {
        "@class": "com.eptisa.dto.SimpleLayerStationGeoDto",
        "stationCode": "002-LBDJPG",
        "lat": 26.49388888888889,
        "lon": 90.91777777777779,
        "savedAt": "2020-10-09",
        "name": "Beki Road bridge",
        "type": "Level",
        "layerStationStationCode": "002-LBDJPG"
    },
    "007-UBDDIB": {
        "@class": "com.eptisa.dto.SimpleLayerStationGeoDto",
        "stationCode": "007-UBDDIB",
        "lat": 27.76361111111111,
        "lon": 95.56611111111111,
        "savedAt": "2020-10-09",
        "name": "Dholabazar",
        "type": "Level",
        "layerStationStationCode": "007-UBDDIB"
    },
    "036-MDBURLA": {
        "@class": "com.eptisa.dto.SimpleLayerStationGeoDto",
        "stationCode": "036-MDBURLA",
        "lat": 20.47,
        "lon": 85.77,
        "savedAt": "2020-10-09",
        "name": "Naraj",
        "type": "Level",
        "layerStationStationCode": "036-MDBURLA"
    },
    "023-MGD1LKN": {
        "@class": "com.eptisa.dto.SimpleLayerStationGeoDto",
        "stationCode": "023-MGD1LKN",
        "lat": 26.72972222222222,
        "lon": 83.34972222222221,
        "savedAt": "2020-10-09",
        "name": "Birdghat ",
        "type": "Level",
        "layerStationStationCode": "023-MGD1LKN"
    },
    "006-LYDAGR": {
        "@class": "com.eptisa.dto.SimpleLayerStationGeoDto",
        "stationCode": "006-LYDAGR",
        "lat": 26.129166666666666,
        "lon": 79.75944444444444,
        "savedAt": "2020-10-09",
        "name": "KALPI",
        "type": "Level",
        "layerStationStationCode": "006-LYDAGR"
    },
    "022-LBDJPG": {
        "@class": "com.eptisa.dto.SimpleLayerStationGeoDto",
        "stationCode": "022-LBDJPG",
        "lat": 26.56277777777778,
        "lon": 88.76166666666667,
        "savedAt": "2020-10-09",
        "name": "DOMOHANI",
        "type": "Level",
        "layerStationStationCode": "022-LBDJPG"
    },
    "009-UBDDIB": {
        "@class": "com.eptisa.dto.SimpleLayerStationGeoDto",
        "stationCode": "009-UBDDIB",
        "lat": 27.635555555555555,
        "lon": 95.84805555555555,
        "savedAt": "2020-10-09",
        "name": "Namsai",
        "type": "Level",
        "layerStationStationCode": "009-UBDDIB"
    },
    "022-DDASL": {
        "@class": "com.eptisa.dto.SimpleLayerStationGeoDto",
        "stationCode": "022-DDASL",
        "lat": 23.884166666666665,
        "lon": 87.91555555555556,
        "savedAt": "2020-10-09",
        "name": "Narayanpur",
        "type": "Level",
        "layerStationStationCode": "022-DDASL"
    },
    "023-MGD5PTN": {
        "@class": "com.eptisa.dto.SimpleLayerStationGeoDto",
        "stationCode": "023-MGD5PTN",
        "lat": 24.839444444444442,
        "lon": 84.13222222222221,
        "savedAt": "2020-10-09",
        "name": "Indrapuri",
        "type": "Level",
        "layerStationStationCode": "023-MGD5PTN"
    },
    "037-UKDPUNE": {
        "@class": "com.eptisa.dto.SimpleLayerStationGeoDto",
        "stationCode": "037-UKDPUNE",
        "lat": 15.821408333333332,
        "lon": 75.09671388888889,
        "savedAt": "2020-10-09",
        "name": "Malaprabha Dam",
        "type": "Inflow",
        "layerStationStationCode": "037-UKDPUNE"
    },
    "016-TDSURAT": {
        "@class": "com.eptisa.dto.SimpleLayerStationGeoDto",
        "stationCode": "016-TDSURAT",
        "lat": 21.07,
        "lon": 75.95,
        "savedAt": "2020-10-09",
        "name": "HATHNUR",
        "type": "Inflow",
        "layerStationStationCode": "016-TDSURAT"
    },
    "073-mgd5ptn": {
        "@class": "com.eptisa.dto.SimpleLayerStationGeoDto",
        "stationCode": "073-mgd5ptn",
        "lat": 24.75,
        "lon": 84.16,
        "savedAt": "2020-10-09",
        "name": "Indrapuri Barrage",
        "type": "Inflow",
        "layerStationStationCode": "073-mgd5ptn"
    },
    "032-wgdngp": {
        "@class": "com.eptisa.dto.SimpleLayerStationGeoDto",
        "stationCode": "032-wgdngp",
        "lat": 20.871944444444445,
        "lon": 79.60388888888889,
        "savedAt": "2020-10-09",
        "name": "Gosikhurd Dam",
        "type": "Inflow",
        "layerStationStationCode": "032-wgdngp"
    },
    "034-LGDHYD": {
        "@class": "com.eptisa.dto.SimpleLayerStationGeoDto",
        "stationCode": "034-LGDHYD",
        "lat": 18.58611111111111,
        "lon": 80.39333333333335,
        "savedAt": "2020-10-09",
        "name": "PVNRao Kantanapally Project",
        "type": "Inflow",
        "layerStationStationCode": "034-LGDHYD"
    },
    "003-mgd4ptn": {
        "@class": "com.eptisa.dto.SimpleLayerStationGeoDto",
        "stationCode": "003-mgd4ptn",
        "lat": 26.415277777777778,
        "lon": 85.06611111111111,
        "savedAt": "2020-10-09",
        "name": "Ahirwalia",
        "type": "Level",
        "layerStationStationCode": "003-mgd4ptn"
    },
    "042CDJAPR": {
        "@class": "com.eptisa.dto.SimpleLayerStationGeoDto",
        "stationCode": "042CDJAPR",
        "lat": 24.699444444444445,
        "lon": 74.71555555555555,
        "savedAt": "2020-10-09",
        "name": "Gambhiri Dam",
        "type": "Inflow",
        "layerStationStationCode": "042CDJAPR"
    },
    "030-HDCHENNAI": {
        "@class": "com.eptisa.dto.SimpleLayerStationGeoDto",
        "stationCode": "030-HDCHENNAI",
        "lat": 11.8,
        "lon": 78.81,
        "savedAt": "2020-10-09",
        "name": "Gomukhi Dam",
        "type": "Inflow",
        "layerStationStationCode": "030-HDCHENNAI"
    },
    "0025-srdcwc": {
        "@class": "com.eptisa.dto.SimpleLayerStationGeoDto",
        "stationCode": "0025-srdcwc",
        "lat": 11.47,
        "lon": 77.1,
        "savedAt": "2020-10-09",
        "name": "Bhavani Sagar Dam ",
        "type": "Inflow",
        "layerStationStationCode": "0025-srdcwc"
    },
    "38mgd5ptn": {
        "@class": "com.eptisa.dto.SimpleLayerStationGeoDto",
        "stationCode": "38mgd5ptn",
        "lat": 24.42,
        "lon": 84.26,
        "savedAt": "2020-10-09",
        "name": "Batane",
        "type": "Inflow",
        "layerStationStationCode": "38mgd5ptn"
    },
    "032-hydchennai": {
        "@class": "com.eptisa.dto.SimpleLayerStationGeoDto",
        "stationCode": "032-hydchennai",
        "lat": 11.4,
        "lon": 79.08999999999999,
        "savedAt": "2020-10-09",
        "name": "Wellington Reservoir",
        "type": "Inflow",
        "layerStationStationCode": "032-hydchennai"
    },
    "002-LKDHYD": {
        "@class": "com.eptisa.dto.SimpleLayerStationGeoDto",
        "stationCode": "002-LKDHYD",
        "lat": 16.2,
        "lon": 76.36,
        "savedAt": "2020-10-09",
        "name": "Narayanapur Reservoir",
        "type": "Inflow",
        "layerStationStationCode": "002-LKDHYD"
    },
    "022-SRDCBE": {
        "@class": "com.eptisa.dto.SimpleLayerStationGeoDto",
        "stationCode": "022-SRDCBE",
        "lat": 10.053333333333335,
        "lon": 77.58916666666666,
        "savedAt": "2020-10-09",
        "name": "Vaigai Reservoir",
        "type": "Inflow",
        "layerStationStationCode": "022-SRDCBE"
    },
    "0032-cdbng": {
        "@class": "com.eptisa.dto.SimpleLayerStationGeoDto",
        "stationCode": "0032-cdbng",
        "lat": 12.821961111111111,
        "lon": 76.05423333333333,
        "savedAt": "2020-10-09",
        "name": "Hemavathy Reservoir",
        "type": "Inflow",
        "layerStationStationCode": "0032-cdbng"
    },
    "027-ugdhyd": {
        "@class": "com.eptisa.dto.SimpleLayerStationGeoDto",
        "stationCode": "027-ugdhyd",
        "lat": 18.844166666666666,
        "lon": 79.37277777777777,
        "savedAt": "2020-10-09",
        "name": "Sripada Yellampalli Project",
        "type": "Inflow",
        "layerStationStationCode": "027-ugdhyd"
    },
    "033-UKDPUNE": {
        "@class": "com.eptisa.dto.SimpleLayerStationGeoDto",
        "stationCode": "033-UKDPUNE",
        "lat": 18.12,
        "lon": 74.08999999999999,
        "savedAt": "2020-10-09",
        "name": "Veer Dam",
        "type": "Inflow",
        "layerStationStationCode": "033-UKDPUNE"
    },
    "038-UKDPUNE": {
        "@class": "com.eptisa.dto.SimpleLayerStationGeoDto",
        "stationCode": "038-UKDPUNE",
        "lat": 16.14318611111111,
        "lon": 74.64265,
        "savedAt": "2020-10-09",
        "name": "Hidkal Reservoir",
        "type": "Inflow",
        "layerStationStationCode": "038-UKDPUNE"
    },
    "004-MGD5PTN": {
        "@class": "com.eptisa.dto.SimpleLayerStationGeoDto",
        "stationCode": "004-MGD5PTN",
        "lat": 25.371111111111112,
        "lon": 85.99388888888889,
        "savedAt": "2020-10-09",
        "name": "Hathidah",
        "type": "Level",
        "layerStationStationCode": "004-MGD5PTN"
    },
    "035-UKDPUNE": {
        "@class": "com.eptisa.dto.SimpleLayerStationGeoDto",
        "stationCode": "035-UKDPUNE",
        "lat": 18.07,
        "lon": 75.11999999999999,
        "savedAt": "2020-10-09",
        "name": "Ujjani Reservoir",
        "type": "Inflow",
        "layerStationStationCode": "035-UKDPUNE"
    },
    "039-erdbwn": {
        "@class": "com.eptisa.dto.SimpleLayerStationGeoDto",
        "stationCode": "039-erdbwn",
        "lat": 18.779999999999998,
        "lon": 83.49,
        "savedAt": "2020-10-09",
        "name": "Thottapalli R/s (APSDPSData)",
        "type": "Inflow",
        "layerStationStationCode": "039-erdbwn"
    },
    "041-SRDCBE": {
        "@class": "com.eptisa.dto.SimpleLayerStationGeoDto",
        "stationCode": "041-SRDCBE",
        "lat": 10.593055555555557,
        "lon": 77.97194444444445,
        "savedAt": "2020-10-09",
        "name": "KODAGANAR DAM",
        "type": "Inflow",
        "layerStationStationCode": "041-SRDCBE"
    },
    "003-ugdhyd": {
        "@class": "com.eptisa.dto.SimpleLayerStationGeoDto",
        "stationCode": "003-ugdhyd",
        "lat": 20.001944444444444,
        "lon": 73.80333333333333,
        "savedAt": "2020-10-09",
        "name": "Nasik",
        "type": "Level",
        "layerStationStationCode": "003-ugdhyd"
    },
    "027-LBDJPG": {
        "@class": "com.eptisa.dto.SimpleLayerStationGeoDto",
        "stationCode": "027-LBDJPG",
        "lat": 26.56972222222222,
        "lon": 88.9375,
        "savedAt": "2020-10-09",
        "name": "Jaldhaka NH-31",
        "type": "Level",
        "layerStationStationCode": "027-LBDJPG"
    },
    "032-UKDPUNE": {
        "@class": "com.eptisa.dto.SimpleLayerStationGeoDto",
        "stationCode": "032-UKDPUNE",
        "lat": 17.4,
        "lon": 73.75,
        "savedAt": "2020-10-09",
        "name": "Koyna",
        "type": "Inflow",
        "layerStationStationCode": "032-UKDPUNE"
    },
    "036-ERDBWN": {
        "@class": "com.eptisa.dto.SimpleLayerStationGeoDto",
        "stationCode": "036-ERDBWN",
        "lat": 18.848333333333333,
        "lon": 83.87305555555555,
        "savedAt": "2020-10-09",
        "name": "Kashinagar",
        "type": "Level",
        "layerStationStationCode": "036-ERDBWN"
    },
    "006-MBDGHY": {
        "@class": "com.eptisa.dto.SimpleLayerStationGeoDto",
        "stationCode": "006-MBDGHY",
        "lat": 26.366388888888892,
        "lon": 91.65333333333334,
        "savedAt": "2020-10-09",
        "name": "Puthimari NH Rd Xing",
        "type": "Level",
        "layerStationStationCode": "006-MBDGHY"
    },
    "0026-mgd3vns": {
        "@class": "com.eptisa.dto.SimpleLayerStationGeoDto",
        "stationCode": "0026-mgd3vns",
        "lat": 24.191666666666666,
        "lon": 81.2875,
        "savedAt": "2020-10-09",
        "name": "Bansagar Dam_1",
        "type": "Inflow",
        "layerStationStationCode": "0026-mgd3vns"
    },
    "042-DDASL": {
        "@class": "com.eptisa.dto.SimpleLayerStationGeoDto",
        "stationCode": "042-DDASL",
        "lat": 23.821944444444444,
        "lon": 87.19944444444445,
        "savedAt": "2020-10-09",
        "name": "Hinglow Dam",
        "type": "Inflow",
        "layerStationStationCode": "042-DDASL"
    },
    "009-UGDHYD": {
        "@class": "com.eptisa.dto.SimpleLayerStationGeoDto",
        "stationCode": "009-UGDHYD",
        "lat": 19.487222222222222,
        "lon": 75.3711111111111,
        "savedAt": "2020-10-09",
        "name": "Jaikwadi Dam",
        "type": "Inflow",
        "layerStationStationCode": "009-UGDHYD"
    },
    "0031-CDBNG": {
        "@class": "com.eptisa.dto.SimpleLayerStationGeoDto",
        "stationCode": "0031-CDBNG",
        "lat": 12.493799999999998,
        "lon": 75.9054138888889,
        "savedAt": "2020-10-09",
        "name": "Harangi Reservoir",
        "type": "Inflow",
        "layerStationStationCode": "0031-CDBNG"
    },
    "016-lkdhyd": {
        "@class": "com.eptisa.dto.SimpleLayerStationGeoDto",
        "stationCode": "016-lkdhyd",
        "lat": 16.08,
        "lon": 78.9,
        "savedAt": "2020-10-09",
        "name": "Srisailam Reservoir",
        "type": "Inflow",
        "layerStationStationCode": "016-lkdhyd"
    },
    "010-lkdhyd": {
        "@class": "com.eptisa.dto.SimpleLayerStationGeoDto",
        "stationCode": "010-lkdhyd",
        "lat": 15.26,
        "lon": 76.33999999999999,
        "savedAt": "2020-10-09",
        "name": "Tungabhadra Dam",
        "type": "Inflow",
        "layerStationStationCode": "010-lkdhyd"
    },
    "009-lkdhyd": {
        "@class": "com.eptisa.dto.SimpleLayerStationGeoDto",
        "stationCode": "009-lkdhyd",
        "lat": 16.33,
        "lon": 77.7,
        "savedAt": "2020-10-09",
        "name": "P.D. Jurala",
        "type": "Inflow",
        "layerStationStationCode": "009-lkdhyd"
    },
    "0037-CDBNG": {
        "@class": "com.eptisa.dto.SimpleLayerStationGeoDto",
        "stationCode": "0037-CDBNG",
        "lat": 13.701352777777776,
        "lon": 75.63661111111112,
        "savedAt": "2020-10-09",
        "name": "Bhadra Reservoir",
        "type": "Inflow",
        "layerStationStationCode": "0037-CDBNG"
    },
    "061-ERDBWN": {
        "@class": "com.eptisa.dto.SimpleLayerStationGeoDto",
        "stationCode": "061-ERDBWN",
        "lat": 21.279999999999998,
        "lon": 85.03,
        "savedAt": "2020-10-09",
        "name": "Rengali Reservoir",
        "type": "Inflow",
        "layerStationStationCode": "061-ERDBWN"
    },
    "001-LKDHYD": {
        "@class": "com.eptisa.dto.SimpleLayerStationGeoDto",
        "stationCode": "001-LKDHYD",
        "lat": 16.33,
        "lon": 75.88,
        "savedAt": "2020-10-09",
        "name": "Almatti Reservoir",
        "type": "Inflow",
        "layerStationStationCode": "001-LKDHYD"
    },
    "42mgd5ptn": {
        "@class": "com.eptisa.dto.SimpleLayerStationGeoDto",
        "stationCode": "42mgd5ptn",
        "lat": 24.05,
        "lon": 83.81,
        "savedAt": "2020-10-09",
        "name": "Annaraj Dam",
        "type": "Inflow",
        "layerStationStationCode": "42mgd5ptn"
    },
    "0024-srdcwc": {
        "@class": "com.eptisa.dto.SimpleLayerStationGeoDto",
        "stationCode": "0024-srdcwc",
        "lat": 11.8,
        "lon": 77.8,
        "savedAt": "2020-10-09",
        "name": "Mettur Reservoir",
        "type": "Inflow",
        "layerStationStationCode": "0024-srdcwc"
    },
    "0033-hydchennai": {
        "@class": "com.eptisa.dto.SimpleLayerStationGeoDto",
        "stationCode": "0033-hydchennai",
        "lat": 13.01,
        "lon": 80.08,
        "savedAt": "2020-10-09",
        "name": "Chembarampakkam",
        "type": "Inflow",
        "layerStationStationCode": "0033-hydchennai"
    },
    "029-hydchennai": {
        "@class": "com.eptisa.dto.SimpleLayerStationGeoDto",
        "stationCode": "029-hydchennai",
        "lat": 13.18,
        "lon": 79.86,
        "savedAt": "2020-10-09",
        "name": "Poondi Satyamoorthy Reservoir",
        "type": "Inflow",
        "layerStationStationCode": "029-hydchennai"
    },
    "011-MAHGAND": {
        "@class": "com.eptisa.dto.SimpleLayerStationGeoDto",
        "stationCode": "011-MAHGAND",
        "lat": 23.97833333333333,
        "lon": 74.0325,
        "savedAt": "2020-10-09",
        "name": "Som Kamla Amba Dam",
        "type": "Inflow",
        "layerStationStationCode": "011-MAHGAND"
    },
    "037-UGDHYD": {
        "@class": "com.eptisa.dto.SimpleLayerStationGeoDto",
        "stationCode": "037-UGDHYD",
        "lat": 17.88,
        "lon": 77.31,
        "savedAt": "2020-10-09",
        "name": "Karanja Dam",
        "type": "Inflow",
        "layerStationStationCode": "037-UGDHYD"
    },
    "035-UGDHYD": {
        "@class": "com.eptisa.dto.SimpleLayerStationGeoDto",
        "stationCode": "035-UGDHYD",
        "lat": 19.15,
        "lon": 76.18,
        "savedAt": "2020-10-09",
        "name": "Manjlegaon",
        "type": "Inflow",
        "layerStationStationCode": "035-UGDHYD"
    },
    "0024-SWRDKOCHI": {
        "@class": "com.eptisa.dto.SimpleLayerStationGeoDto",
        "stationCode": "0024-SWRDKOCHI",
        "lat": 9.84,
        "lon": 76.97,
        "savedAt": "2020-10-09",
        "name": "Idukki (Eb)/Idukki Arch Reservoir",
        "type": "Inflow",
        "layerStationStationCode": "0024-SWRDKOCHI"
    },
    "0038-ERDBWN": {
        "@class": "com.eptisa.dto.SimpleLayerStationGeoDto",
        "stationCode": "0038-ERDBWN",
        "lat": 22.97,
        "lon": 86.05,
        "savedAt": "2020-10-09",
        "name": "Chandil Dam",
        "type": "Inflow",
        "layerStationStationCode": "0038-ERDBWN"
    },
    "0033-cdbng": {
        "@class": "com.eptisa.dto.SimpleLayerStationGeoDto",
        "stationCode": "0033-cdbng",
        "lat": 11.973391666666666,
        "lon": 76.35275,
        "savedAt": "2020-10-09",
        "name": "Kabini Reservoir",
        "type": "Inflow",
        "layerStationStationCode": "0033-cdbng"
    },
    "055-erdbwn": {
        "@class": "com.eptisa.dto.SimpleLayerStationGeoDto",
        "stationCode": "055-erdbwn",
        "lat": 21.279999999999998,
        "lon": 86.3,
        "savedAt": "2020-10-09",
        "name": "Salandi Reservoir",
        "type": "Inflow",
        "layerStationStationCode": "055-erdbwn"
    },
    "057-erdbwn": {
        "@class": "com.eptisa.dto.SimpleLayerStationGeoDto",
        "stationCode": "057-erdbwn",
        "lat": 23.45,
        "lon": 85.55,
        "savedAt": "2020-10-09",
        "name": "Getalsud Reservoir",
        "type": "Inflow",
        "layerStationStationCode": "057-erdbwn"
    },
    "045-CDJAPR": {
        "@class": "com.eptisa.dto.SimpleLayerStationGeoDto",
        "stationCode": "045-CDJAPR",
        "lat": 24.92,
        "lon": 75.58,
        "savedAt": "2020-10-09",
        "name": "Ranapratap Sagar Reservoir",
        "type": "Inflow",
        "layerStationStationCode": "045-CDJAPR"
    },
    "062-MGD4PTN": {
        "@class": "com.eptisa.dto.SimpleLayerStationGeoDto",
        "stationCode": "062-MGD4PTN",
        "lat": 26.52,
        "lon": 86.92,
        "savedAt": "2020-10-09",
        "name": "KOSI BARRAGE",
        "type": "Inflow",
        "layerStationStationCode": "062-MGD4PTN"
    },
    "010-MAHGAND": {
        "@class": "com.eptisa.dto.SimpleLayerStationGeoDto",
        "stationCode": "010-MAHGAND",
        "lat": 23.054166666666667,
        "lon": 73.71666666666667,
        "savedAt": "2020-10-09",
        "name": "Panam Dam",
        "type": "Inflow",
        "layerStationStationCode": "010-MAHGAND"
    },
    "039-LKDHYD": {
        "@class": "com.eptisa.dto.SimpleLayerStationGeoDto",
        "stationCode": "039-LKDHYD",
        "lat": 15.030000000000001,
        "lon": 75.83,
        "savedAt": "2020-10-09",
        "name": "Singatalur Barrage",
        "type": "Inflow",
        "layerStationStationCode": "039-LKDHYD"
    },
    "0029-LKDHYD": {
        "@class": "com.eptisa.dto.SimpleLayerStationGeoDto",
        "stationCode": "0029-LKDHYD",
        "lat": 16.75,
        "lon": 80.05,
        "savedAt": "2020-10-09",
        "name": "DR KLRS Pulichintala Dam",
        "type": "Inflow",
        "layerStationStationCode": "0029-LKDHYD"
    },
    "007-MAHGAND": {
        "@class": "com.eptisa.dto.SimpleLayerStationGeoDto",
        "stationCode": "007-MAHGAND",
        "lat": 23.30527777777778,
        "lon": 73.82472222222222,
        "savedAt": "2020-10-09",
        "name": "Kadana Dam",
        "type": "Inflow",
        "layerStationStationCode": "007-MAHGAND"
    },
    "0036-CDBNG": {
        "@class": "com.eptisa.dto.SimpleLayerStationGeoDto",
        "stationCode": "0036-CDBNG",
        "lat": 13.843333333333334,
        "lon": 75.52638888888889,
        "savedAt": "2020-10-09",
        "name": "Upper Tunga Prject",
        "type": "Inflow",
        "layerStationStationCode": "0036-CDBNG"
    },
    "056-erdbwn": {
        "@class": "com.eptisa.dto.SimpleLayerStationGeoDto",
        "stationCode": "056-erdbwn",
        "lat": 18.479999999999997,
        "lon": 83.8,
        "savedAt": "2020-10-09",
        "name": "Narayanpuram Anicut",
        "type": "Inflow",
        "layerStationStationCode": "056-erdbwn"
    },
    "051-MGD1LKN": {
        "@class": "com.eptisa.dto.SimpleLayerStationGeoDto",
        "stationCode": "051-MGD1LKN",
        "lat": 28.995555555555555,
        "lon": 80.10555555555555,
        "savedAt": "2020-10-09",
        "name": "Banbasa Barrage",
        "type": "Inflow",
        "layerStationStationCode": "051-MGD1LKN"
    },
    "031-LYDAGRA": {
        "@class": "com.eptisa.dto.SimpleLayerStationGeoDto",
        "stationCode": "031-LYDAGRA",
        "lat": 24.76,
        "lon": 78.23,
        "savedAt": "2020-10-09",
        "name": "RAJGHAT DAM",
        "type": "Inflow",
        "layerStationStationCode": "031-LYDAGRA"
    },
    "030-LYDAGRA": {
        "@class": "com.eptisa.dto.SimpleLayerStationGeoDto",
        "stationCode": "030-LYDAGRA",
        "lat": 25.1,
        "lon": 78.36,
        "savedAt": "2020-10-09",
        "name": "Matatila Reservoir",
        "type": "Inflow",
        "layerStationStationCode": "030-LYDAGRA"
    },
    "005-MAHGAND": {
        "@class": "com.eptisa.dto.SimpleLayerStationGeoDto",
        "stationCode": "005-MAHGAND",
        "lat": 23.628611111111113,
        "lon": 74.54722222222222,
        "savedAt": "2020-10-09",
        "name": "Mahi Bajaj Sagar Dam",
        "type": "Inflow",
        "layerStationStationCode": "005-MAHGAND"
    },
    "036-UKDPUNE": {
        "@class": "com.eptisa.dto.SimpleLayerStationGeoDto",
        "stationCode": "036-UKDPUNE",
        "lat": 16.55,
        "lon": 75.16000000000001,
        "savedAt": "2020-10-09",
        "name": "Hipparagi Barrage",
        "type": "Inflow",
        "layerStationStationCode": "036-UKDPUNE"
    },
    "011-SRDCBE": {
        "@class": "com.eptisa.dto.SimpleLayerStationGeoDto",
        "stationCode": "011-SRDCBE",
        "lat": 11.08,
        "lon": 77.89,
        "savedAt": "2020-10-09",
        "name": "KODUMUDI",
        "type": "Level",
        "layerStationStationCode": "011-SRDCBE"
    },
    "023-UGDHYD": {
        "@class": "com.eptisa.dto.SimpleLayerStationGeoDto",
        "stationCode": "023-UGDHYD",
        "lat": 18.97,
        "lon": 78.33999999999999,
        "savedAt": "2020-10-09",
        "name": "Sriram Sagar Reservoir",
        "type": "Inflow",
        "layerStationStationCode": "023-UGDHYD"
    },
    "019-UGDHYD": {
        "@class": "com.eptisa.dto.SimpleLayerStationGeoDto",
        "stationCode": "019-UGDHYD",
        "lat": 18.22,
        "lon": 77.96000000000001,
        "savedAt": "2020-10-09",
        "name": "Nizamsagar Reservoir",
        "type": "Inflow",
        "layerStationStationCode": "019-UGDHYD"
    },
    "036-UGDHYD": {
        "@class": "com.eptisa.dto.SimpleLayerStationGeoDto",
        "stationCode": "036-UGDHYD",
        "lat": 19.71,
        "lon": 76.75,
        "savedAt": "2020-10-09",
        "name": "Yeldari Reservoir",
        "type": "Inflow",
        "layerStationStationCode": "036-UGDHYD"
    },
    "002-jhelum": {
        "@class": "com.eptisa.dto.SimpleLayerStationGeoDto",
        "stationCode": "002-jhelum",
        "lat": 33.833333333333336,
        "lon": 75.06694444444445,
        "savedAt": "2020-10-09",
        "name": "Sangam",
        "type": "Level",
        "layerStationStationCode": "002-jhelum"
    },
    "0030-LKDHYD": {
        "@class": "com.eptisa.dto.SimpleLayerStationGeoDto",
        "stationCode": "0030-LKDHYD",
        "lat": 15.88,
        "lon": 77.83,
        "savedAt": "2020-10-09",
        "name": "Sunkesula Barrage",
        "type": "Inflow",
        "layerStationStationCode": "0030-LKDHYD"
    },
    "058-erdbwn": {
        "@class": "com.eptisa.dto.SimpleLayerStationGeoDto",
        "stationCode": "058-erdbwn",
        "lat": 22.64,
        "lon": 86.39,
        "savedAt": "2020-10-09",
        "name": "Galudih Barrage",
        "type": "Inflow",
        "layerStationStationCode": "058-erdbwn"
    },
    "018-DDASL": {
        "@class": "com.eptisa.dto.SimpleLayerStationGeoDto",
        "stationCode": "018-DDASL",
        "lat": 24.10638888888889,
        "lon": 87.30722222222222,
        "savedAt": "2020-10-09",
        "name": "Massanjore Dam",
        "type": "Inflow",
        "layerStationStationCode": "018-DDASL"
    },
    "NBO-1-046-1247": {
        "@class": "com.eptisa.dto.SimpleLayerStationGeoDto",
        "stationCode": "NBO-1-046-1247",
        "lat": 22.279999999999998,
        "lon": 76.47,
        "savedAt": "2020-10-09",
        "name": "Indira Sagar Reservoir",
        "type": "Inflow",
        "layerStationStationCode": "NBO-1-046-1247"
    },
    "48-lgdhyd": {
        "@class": "com.eptisa.dto.SimpleLayerStationGeoDto",
        "stationCode": "48-lgdhyd",
        "lat": 18.788611111111113,
        "lon": 82.60083333333333,
        "savedAt": "2020-10-09",
        "name": "Upper Kolab Dam ",
        "type": "Inflow",
        "layerStationStationCode": "48-lgdhyd"
    },
    "47-LGDHYD": {
        "@class": "com.eptisa.dto.SimpleLayerStationGeoDto",
        "stationCode": "47-LGDHYD",
        "lat": 19.27611111111111,
        "lon": 82.82833333333333,
        "savedAt": "2020-10-09",
        "name": "Upper Indravati Dam",
        "type": "Inflow",
        "layerStationStationCode": "47-LGDHYD"
    },
    "061 MDBURLA": {
        "@class": "com.eptisa.dto.SimpleLayerStationGeoDto",
        "stationCode": "061 MDBURLA",
        "lat": 22.59,
        "lon": 82.57,
        "savedAt": "2020-10-09",
        "name": "BANGODAM RESERVOIR",
        "type": "Inflow",
        "layerStationStationCode": "061 MDBURLA"
    },
    "0022-cdjaipur": {
        "@class": "com.eptisa.dto.SimpleLayerStationGeoDto",
        "stationCode": "0022-cdjaipur",
        "lat": 25.92,
        "lon": 75.45,
        "savedAt": "2020-10-09",
        "name": "Bisalpur Reservoir",
        "type": "Inflow",
        "layerStationStationCode": "0022-cdjaipur"
    },
    "016-HGDDDN": {
        "@class": "com.eptisa.dto.SimpleLayerStationGeoDto",
        "stationCode": "016-HGDDDN",
        "lat": 29.372777777777777,
        "lon": 78.03833333333333,
        "savedAt": "2020-10-09",
        "name": "Ch. Charan Singh Madhya Ganga Barrage, Bijnor",
        "type": "Inflow",
        "layerStationStationCode": "016-HGDDDN"
    },
    "014-mgd3vns": {
        "@class": "com.eptisa.dto.SimpleLayerStationGeoDto",
        "stationCode": "014-mgd3vns",
        "lat": 24.21,
        "lon": 83.02,
        "savedAt": "2020-10-09",
        "name": "RIHAND DAM",
        "type": "Inflow",
        "layerStationStationCode": "014-mgd3vns"
    },
    "ITCHAPURAM": {
        "@class": "com.eptisa.dto.SimpleLayerStationGeoDto",
        "stationCode": "ITCHAPURAM",
        "lat": 19.098333333333333,
        "lon": 84.67861111111111,
        "savedAt": "2020-10-09",
        "name": "ITCHAPURAM",
        "type": "Level",
        "layerStationStationCode": "ITCHAPURAM"
    },
    "008-MAHGAND": {
        "@class": "com.eptisa.dto.SimpleLayerStationGeoDto",
        "stationCode": "008-MAHGAND",
        "lat": 22.9475,
        "lon": 73.42944444444444,
        "savedAt": "2020-10-09",
        "name": "Wanakbori Weir",
        "type": "Level",
        "layerStationStationCode": "008-MAHGAND"
    },
    "FF-5": {
        "@class": "com.eptisa.dto.SimpleLayerStationGeoDto",
        "stationCode": "FF-5",
        "lat": 27.25,
        "lon": 88.45,
        "savedAt": "2020-10-09",
        "name": "Teesta -V Dam",
        "type": "Inflow",
        "layerStationStationCode": "FF-5"
    },
    "FF - 2": {
        "@class": "com.eptisa.dto.SimpleLayerStationGeoDto",
        "stationCode": "FF - 2",
        "lat": 27.290000000000003,
        "lon": 88.28999999999999,
        "savedAt": "2020-10-09",
        "name": "Rangit- 3 Dam",
        "type": "Inflow",
        "layerStationStationCode": "FF - 2"
    },
    "NBO-2-055-1257": {
        "@class": "com.eptisa.dto.SimpleLayerStationGeoDto",
        "stationCode": "NBO-2-055-1257",
        "lat": 22.94,
        "lon": 79.92,
        "savedAt": "2020-10-09",
        "name": "Bargi Reservoir",
        "type": "Inflow",
        "layerStationStationCode": "NBO-2-055-1257"
    },
    "028-TDSURAT": {
        "@class": "com.eptisa.dto.SimpleLayerStationGeoDto",
        "stationCode": "028-TDSURAT",
        "lat": 20.19,
        "lon": 73.06,
        "savedAt": "2020-10-09",
        "name": "MADHUBAN DAM",
        "type": "Inflow",
        "layerStationStationCode": "028-TDSURAT"
    },
    "036-DDASL": {
        "@class": "com.eptisa.dto.SimpleLayerStationGeoDto",
        "stationCode": "036-DDASL",
        "lat": 24.93,
        "lon": 87.38,
        "savedAt": "2020-10-09",
        "name": "SUNDAR DAM",
        "type": "Inflow",
        "layerStationStationCode": "036-DDASL"
    },
    "010-DDASL\t": {
        "@class": "com.eptisa.dto.SimpleLayerStationGeoDto",
        "stationCode": "010-DDASL\t",
        "lat": 23.68,
        "lon": 86.75,
        "savedAt": "2020-10-09",
        "name": "Panchat Reservoir",
        "type": "Inflow",
        "layerStationStationCode": "010-DDASL\t"
    },
    "042-SRDCBE": {
        "@class": "com.eptisa.dto.SimpleLayerStationGeoDto",
        "stationCode": "042-SRDCBE",
        "lat": 10.88861111111111,
        "lon": 78.58,
        "savedAt": "2020-10-09",
        "name": "UPPER ANICUT",
        "type": "Inflow",
        "layerStationStationCode": "042-SRDCBE"
    },
    "031-LGDHYD": {
        "@class": "com.eptisa.dto.SimpleLayerStationGeoDto",
        "stationCode": "031-LGDHYD",
        "lat": 17.2925,
        "lon": 81.64361111111111,
        "savedAt": "2020-10-09",
        "name": "Polavaram Irrigation Project",
        "type": "Inflow",
        "layerStationStationCode": "031-LGDHYD"
    },
    "CW1WEI000073": {
        "@class": "com.eptisa.dto.SimpleLayerStationGeoDto",
        "stationCode": "CW1WEI000073",
        "lat": 21.65833333333333,
        "lon": 79.23333333333333,
        "savedAt": "2020-10-09",
        "name": "Pench Reservoir",
        "type": "Inflow",
        "layerStationStationCode": "CW1WEI000073"
    },
    "007-HGDDDN": {
        "@class": "com.eptisa.dto.SimpleLayerStationGeoDto",
        "stationCode": "007-HGDDDN",
        "lat": 30.228888888888886,
        "lon": 78.78666666666666,
        "savedAt": "2020-10-09",
        "name": "Srinagar",
        "type": "Level",
        "layerStationStationCode": "007-HGDDDN"
    },
    "026-ugdhyd": {
        "@class": "com.eptisa.dto.SimpleLayerStationGeoDto",
        "stationCode": "026-ugdhyd",
        "lat": 19.1,
        "lon": 78.78999999999999,
        "savedAt": "2020-10-09",
        "name": "Kaddam Dam",
        "type": "Inflow",
        "layerStationStationCode": "026-ugdhyd"
    },
    "37-DDASL": {
        "@class": "com.eptisa.dto.SimpleLayerStationGeoDto",
        "stationCode": "37-DDASL",
        "lat": 23.523055555555555,
        "lon": 85.6725,
        "savedAt": "2020-10-09",
        "name": "BHAIRWA DAM",
        "type": "Inflow",
        "layerStationStationCode": "37-DDASL"
    },